{"type":"FeatureCollection","crs":{"type":"name","properties":{"name":"EPSG:4326"}},"features":[{"type":"Feature","id":1,"geometry":{"type":"Point","coordinates":[121.309962300139,24.9819541203369]},"properties":{"FID":1,"county":10003,"city":1000301,"village":"福林里","number":"H010000600","name":"陽明公園(保羅街舞台下)無障礙廁所","address":"桃園市桃園區福林里保羅街","administra":"桃園市桃園區公所","latitude":24.98195412,"longitude":121.3099623,"grade":"特優級","type2":"公園","type":"無障礙廁所","exec_":"桃園市桃園區公所公燈管理課","diaper":0}},{"type":"Feature","id":2,"geometry":{"type":"Point","coordinates":[121.310133900175,24.981876319768]},"properties":{"FID":2,"county":10003,"city":1000301,"village":"福林里","number":"H010000599","name":"陽明公園(保羅街舞台下)女廁","address":"桃園市桃園區福林里保羅街","administra":"桃園市桃園區公所","latitude":24.98187632,"longitude":121.3101339,"grade":"特優級","type2":"公園","type":"女廁所","exec_":"桃園市桃園區公所公燈管理課","diaper":0}},{"type":"Feature","id":3,"geometry":{"type":"Point","coordinates":[121.309962300139,24.9819541203369]},"properties":{"FID":3,"county":10003,"city":1000301,"village":"福林里","number":"H010000598","name":"陽明公園(保羅街舞台下)男廁","address":"桃園市桃園區福林里保羅街","administra":"桃園市桃園區公所","latitude":24.98195412,"longitude":121.3099623,"grade":"特優級","type2":"公園","type":"男廁所","exec_":"桃園市桃園區公所公燈管理課","diaper":0}},{"type":"Feature","id":4,"geometry":{"type":"Point","coordinates":[121.308524600456,24.9821583396069]},"properties":{"FID":4,"county":10003,"city":1000301,"village":"福林里","number":"H010000596","name":"陽明公園(介壽街、保羅街轉角)無障礙廁所","address":"桃園市桃園區福林里保羅街","administra":"桃園市桃園區公所","latitude":24.98215834,"longitude":121.3085246,"grade":"特優級","type2":"公園","type":"無障礙廁所","exec_":"桃園市桃園區公所公燈管理課","diaper":1}},{"type":"Feature","id":5,"geometry":{"type":"Point","coordinates":[121.308492399669,24.9821291699432]},"properties":{"FID":5,"county":10003,"city":1000301,"village":"福林里","number":"H010000594","name":"陽明公園(介壽街、保羅街轉角) 女廁","address":"桃園市桃園區福林里保羅街","administra":"桃園市桃園區公所","latitude":24.98212917,"longitude":121.3084924,"grade":"特優級","type2":"公園","type":"女廁所","exec_":"桃園市桃園區公所公燈管理課","diaper":0}},{"type":"Feature","id":6,"geometry":{"type":"Point","coordinates":[121.306180399763,24.9798777995727]},"properties":{"FID":6,"county":10003,"city":1000301,"village":"福林里","number":"H010000589","name":"福林公園無障礙廁所","address":"桃園市桃園區福林里介壽路281號","administra":"桃園市桃園區公所","latitude":24.9798778,"longitude":121.3061804,"grade":"特優級","type2":"公園","type":"無障礙廁所","exec_":"桃園市桃園區公所公燈管理課","diaper":0}},{"type":"Feature","id":7,"geometry":{"type":"Point","coordinates":[121.327584400441,25.0034008303715]},"properties":{"FID":7,"county":10003,"city":1000301,"village":"三元里","number":"H010001408","name":"桃園市公教退休人員協會1樓無障礙廁所","address":"桃園市桃園區三元里公園路129號","administra":"桃園市公教退休人員協會","latitude":25.00340083,"longitude":121.3275844,"grade":"特優級","type2":"社福機構、集會場所","type":"無障礙廁所","exec_":"桃園市公教退休人員協會","diaper":0}},{"type":"Feature","id":8,"geometry":{"type":"Point","coordinates":[121.327577200417,25.0033856696838]},"properties":{"FID":8,"county":10003,"city":1000301,"village":"三元里","number":"H010001407","name":"桃園市公教退休人員協會1樓女廁","address":"桃園市桃園區三元里公園路129號","administra":"桃園市公教退休人員協會","latitude":25.00338567,"longitude":121.3275772,"grade":"特優級","type2":"社福機構、集會場所","type":"女廁所","exec_":"桃園市公教退休人員協會","diaper":0}},{"type":"Feature","id":9,"geometry":{"type":"Point","coordinates":[121.327501699754,25.0034151597972]},"properties":{"FID":9,"county":10003,"city":1000301,"village":"三元里","number":"H010001406","name":"桃園市公教退休人員協會1樓男廁","address":"桃園市桃園區三元里公園路129號","administra":"桃園市公教退休人員協會","latitude":25.00341516,"longitude":121.3275017,"grade":"特優級","type2":"社福機構、集會場所","type":"男廁所","exec_":"桃園市公教退休人員協會","diaper":0}},{"type":"Feature","id":10,"geometry":{"type":"Point","coordinates":[121.298029099936,24.9996018498977]},"properties":{"FID":10,"county":10003,"city":1000301,"village":"中興里","number":"H010000899","name":"桃園市政府消防局6樓女廁","address":"桃園市桃園區中興里力行路280號","administra":"桃園市政府消防局","latitude":24.99960185,"longitude":121.2980291,"grade":"特優級","type2":"民眾洽公場所","type":"女廁所","exec_":"桃園市政府消防局","diaper":0}},{"type":"Feature","id":11,"geometry":{"type":"Point","coordinates":[121.298031799804,24.9996348203696]},"properties":{"FID":11,"county":10003,"city":1000301,"village":"中興里","number":"H010000898","name":"桃園市政府消防局6樓男廁","address":"桃園市桃園區中興里力行路280號","administra":"桃園市政府消防局","latitude":24.99963482,"longitude":121.2980318,"grade":"特優級","type2":"民眾洽公場所","type":"男廁所","exec_":"桃園市政府消防局","diaper":0}},{"type":"Feature","id":12,"geometry":{"type":"Point","coordinates":[121.314596999784,24.9823480001136]},"properties":{"FID":12,"county":10003,"city":1000301,"village":"大豐里","number":"H010000946","name":"桃園婦女館(2樓演藝廳)女無障礙廁所","address":"桃園市桃園區大豐里延平路147號","administra":"桃園市政府文化局","latitude":24.982348,"longitude":121.314597,"grade":"特優級","type2":"民眾洽公場所","type":"無障礙廁所","exec_":"桃園市政府文化局桃園婦女館","diaper":0}},{"type":"Feature","id":13,"geometry":{"type":"Point","coordinates":[121.315170300312,24.9812870001491]},"properties":{"FID":13,"county":10003,"city":1000301,"village":"大豐里","number":"H010000945","name":"桃園婦女館(B1辦公室)女廁","address":"桃園市桃園區大豐里延平路147號","administra":"桃園市政府文化局","latitude":24.981287,"longitude":121.3151703,"grade":"特優級","type2":"民眾洽公場所","type":"女廁所","exec_":"桃園市政府文化局桃園婦女館","diaper":1}},{"type":"Feature","id":14,"geometry":{"type":"Point","coordinates":[121.315170000335,24.9812870603711]},"properties":{"FID":14,"county":10003,"city":1000301,"village":"大豐里","number":"H010000944","name":"桃園婦女館(B1辦公室)男廁","address":"桃園市桃園區大豐里延平路147號","administra":"桃園市政府文化局","latitude":24.98128706,"longitude":121.31517,"grade":"特優級","type2":"民眾洽公場所","type":"男廁所","exec_":"桃園市政府文化局桃園婦女館","diaper":1}},{"type":"Feature","id":15,"geometry":{"type":"Point","coordinates":[121.314596999784,24.9823480001136]},"properties":{"FID":15,"county":10003,"city":1000301,"village":"大豐里","number":"H010000940","name":"桃園婦女館(2樓演藝廳)男無障礙廁所","address":"桃園市桃園區大豐里延平路147號","administra":"桃園市政府文化局","latitude":24.982348,"longitude":121.314597,"grade":"特優級","type2":"民眾洽公場所","type":"無障礙廁所","exec_":"桃園市政府文化局桃園婦女館","diaper":0}},{"type":"Feature","id":16,"geometry":{"type":"Point","coordinates":[121.31523900049,24.9815225099827]},"properties":{"FID":16,"county":10003,"city":1000301,"village":"大豐里","number":"H010000939","name":"桃園婦女館(2樓演藝廳)女廁","address":"桃園市桃園區大豐里延平路147號","administra":"桃園市政府文化局","latitude":24.98152251,"longitude":121.315239,"grade":"特優級","type2":"民眾洽公場所","type":"女廁所","exec_":"桃園市政府文化局桃園婦女館","diaper":1}},{"type":"Feature","id":17,"geometry":{"type":"Point","coordinates":[121.314596999784,24.9823480001136]},"properties":{"FID":17,"county":10003,"city":1000301,"village":"大豐里","number":"H010000938","name":"桃園婦女館(2樓演藝廳)男廁","address":"桃園市桃園區大豐里延平路147號","administra":"桃園市政府文化局","latitude":24.982348,"longitude":121.314597,"grade":"特優級","type2":"民眾洽公場所","type":"男廁所","exec_":"桃園市政府文化局桃園婦女館","diaper":0}},{"type":"Feature","id":18,"geometry":{"type":"Point","coordinates":[121.314596999784,24.9823480001136]},"properties":{"FID":18,"county":10003,"city":1000301,"village":"大豐里","number":"H010000930","name":"桃園婦女館(3樓辦公室)女廁","address":"桃園市桃園區大豐里延平路147號","administra":"桃園市政府文化局","latitude":24.982348,"longitude":121.314597,"grade":"特優級","type2":"民眾洽公場所","type":"女廁所","exec_":"桃園市政府文化局桃園婦女館","diaper":1}},{"type":"Feature","id":19,"geometry":{"type":"Point","coordinates":[121.314596999784,24.9823480001136]},"properties":{"FID":19,"county":10003,"city":1000301,"village":"大豐里","number":"H010000929","name":"桃園婦女館(3樓辦公室)男廁","address":"桃園市桃園區大豐里延平路147號","administra":"桃園市政府文化局","latitude":24.982348,"longitude":121.314597,"grade":"特優級","type2":"民眾洽公場所","type":"男廁所","exec_":"桃園市政府文化局桃園婦女館","diaper":0}},{"type":"Feature","id":20,"geometry":{"type":"Point","coordinates":[121.314596999784,24.9823480001136]},"properties":{"FID":20,"county":10003,"city":1000301,"village":"大豐里","number":"H010000927","name":"桃園婦女館(2樓辦公室)女廁","address":"桃園市桃園區大豐里延平路147號","administra":"桃園市政府文化局","latitude":24.982348,"longitude":121.314597,"grade":"特優級","type2":"民眾洽公場所","type":"女廁所","exec_":"桃園市政府文化局桃園婦女館","diaper":1}},{"type":"Feature","id":21,"geometry":{"type":"Point","coordinates":[121.314596999784,24.9823480001136]},"properties":{"FID":21,"county":10003,"city":1000301,"village":"大豐里","number":"H010000926","name":"桃園婦女館(2樓辦公室)男廁","address":"桃園市桃園區大豐里延平路147號","administra":"桃園市政府文化局","latitude":24.982348,"longitude":121.314597,"grade":"特優級","type2":"民眾洽公場所","type":"男廁所","exec_":"桃園市政府文化局桃園婦女館","diaper":0}},{"type":"Feature","id":22,"geometry":{"type":"Point","coordinates":[121.315346899763,24.9809204204122]},"properties":{"FID":22,"county":10003,"city":1000301,"village":"大豐里","number":"H010000924","name":"桃園婦女館(1樓辦公室)女廁","address":"桃園市桃園區大豐里延平路147號","administra":"桃園市政府文化局","latitude":24.98092042,"longitude":121.3153469,"grade":"特優級","type2":"民眾洽公場所","type":"女廁所","exec_":"桃園市政府文化局桃園婦女館","diaper":0}},{"type":"Feature","id":23,"geometry":{"type":"Point","coordinates":[121.315224200404,24.9812662201917]},"properties":{"FID":23,"county":10003,"city":1000301,"village":"大豐里","number":"H010000923","name":"桃園婦女館(1樓辦公室)男廁","address":"桃園市桃園區大豐里延平路147號","administra":"桃園市政府文化局","latitude":24.98126622,"longitude":121.3152242,"grade":"特優級","type2":"民眾洽公場所","type":"男廁所","exec_":"桃園市政府文化局桃園婦女館","diaper":0}},{"type":"Feature","id":24,"geometry":{"type":"Point","coordinates":[121.304910999562,25.015614000227]},"properties":{"FID":24,"county":10003,"city":1000301,"village":"新埔里","number":"H010001181","name":"家樂福經國店4F(F11)女廁","address":"桃園市桃園區新埔里經國路369號","administra":"家福股份有限公司","latitude":25.015614,"longitude":121.304911,"grade":"特優級","type2":"商業營業場所","type":"女廁所","exec_":"家福股份有限公司","diaper":0}},{"type":"Feature","id":25,"geometry":{"type":"Point","coordinates":[121.304910999562,25.015614000227]},"properties":{"FID":25,"county":10003,"city":1000301,"village":"新埔里","number":"H010001180","name":"家樂福經國店4F(F11)男廁","address":"桃園市桃園區新埔里經國路369號","administra":"家福股份有限公司","latitude":25.015614,"longitude":121.304911,"grade":"特優級","type2":"商業營業場所","type":"男廁所","exec_":"家福股份有限公司","diaper":0}},{"type":"Feature","id":26,"geometry":{"type":"Point","coordinates":[121.304910999562,25.015614000227]},"properties":{"FID":26,"county":10003,"city":1000301,"village":"新埔里","number":"H010001179","name":"家樂福經國店4F(F14)無障礙廁所","address":"桃園市桃園區新埔里經國路369號","administra":"家福股份有限公司","latitude":25.015614,"longitude":121.304911,"grade":"特優級","type2":"商業營業場所","type":"無障礙廁所","exec_":"家福股份有限公司","diaper":0}},{"type":"Feature","id":27,"geometry":{"type":"Point","coordinates":[121.304910999562,25.015614000227]},"properties":{"FID":27,"county":10003,"city":1000301,"village":"新埔里","number":"H010001178","name":"家樂福經國店4F(F14)女廁","address":"桃園市桃園區新埔里經國路369號","administra":"家福股份有限公司","latitude":25.015614,"longitude":121.304911,"grade":"特優級","type2":"商業營業場所","type":"女廁所","exec_":"家福股份有限公司","diaper":0}},{"type":"Feature","id":28,"geometry":{"type":"Point","coordinates":[121.304910999562,25.015614000227]},"properties":{"FID":28,"county":10003,"city":1000301,"village":"新埔里","number":"H010001177","name":"家樂福經國店4F(F14)男廁","address":"桃園市桃園區新埔里經國路369號","administra":"家福股份有限公司","latitude":25.015614,"longitude":121.304911,"grade":"特優級","type2":"商業營業場所","type":"男廁所","exec_":"家福股份有限公司","diaper":0}},{"type":"Feature","id":29,"geometry":{"type":"Point","coordinates":[121.304910999562,25.015614000227]},"properties":{"FID":29,"county":10003,"city":1000301,"village":"新埔里","number":"H010001176","name":"家樂福經國店3F(F11)女廁","address":"桃園市桃園區新埔里經國路369號","administra":"家福股份有限公司","latitude":25.015614,"longitude":121.304911,"grade":"特優級","type2":"商業營業場所","type":"女廁所","exec_":"家福股份有限公司","diaper":0}},{"type":"Feature","id":30,"geometry":{"type":"Point","coordinates":[121.304910999562,25.015614000227]},"properties":{"FID":30,"county":10003,"city":1000301,"village":"新埔里","number":"H010001175","name":"家樂福經國店3F(F11)男廁","address":"桃園市桃園區新埔里經國路369號","administra":"家福股份有限公司","latitude":25.015614,"longitude":121.304911,"grade":"特優級","type2":"商業營業場所","type":"男廁所","exec_":"家福股份有限公司","diaper":0}},{"type":"Feature","id":31,"geometry":{"type":"Point","coordinates":[121.304910999562,25.015614000227]},"properties":{"FID":31,"county":10003,"city":1000301,"village":"新埔里","number":"H010001174","name":"家樂福經國店3F(F14)無障礙廁所","address":"桃園市桃園區新埔里經國路369號","administra":"家福股份有限公司","latitude":25.015614,"longitude":121.304911,"grade":"特優級","type2":"商業營業場所","type":"無障礙廁所","exec_":"家福股份有限公司","diaper":0}},{"type":"Feature","id":32,"geometry":{"type":"Point","coordinates":[121.304910999562,25.015614000227]},"properties":{"FID":32,"county":10003,"city":1000301,"village":"新埔里","number":"H010001173","name":"家樂福經國店3F(F14)女廁","address":"桃園市桃園區新埔里經國路369號","administra":"家福股份有限公司","latitude":25.015614,"longitude":121.304911,"grade":"特優級","type2":"商業營業場所","type":"女廁所","exec_":"家福股份有限公司","diaper":0}},{"type":"Feature","id":33,"geometry":{"type":"Point","coordinates":[121.304910999562,25.015614000227]},"properties":{"FID":33,"county":10003,"city":1000301,"village":"新埔里","number":"H010001172","name":"家樂福經國店3F(F14)男廁","address":"桃園市桃園區新埔里經國路369號","administra":"家福股份有限公司","latitude":25.015614,"longitude":121.304911,"grade":"特優級","type2":"商業營業場所","type":"男廁所","exec_":"家福股份有限公司","diaper":0}},{"type":"Feature","id":34,"geometry":{"type":"Point","coordinates":[121.304910999562,25.015614000227]},"properties":{"FID":34,"county":10003,"city":1000301,"village":"新埔里","number":"H010001171","name":"家樂福經國店2F(近長庚生技)無障礙廁所","address":"桃園市桃園區新埔里經國路369號","administra":"家福股份有限公司","latitude":25.015614,"longitude":121.304911,"grade":"特優級","type2":"商業營業場所","type":"無障礙廁所","exec_":"家福股份有限公司","diaper":0}},{"type":"Feature","id":35,"geometry":{"type":"Point","coordinates":[121.304910999562,25.015614000227]},"properties":{"FID":35,"county":10003,"city":1000301,"village":"新埔里","number":"H010001170","name":"家樂福經國店2F(近長庚生技)女廁","address":"桃園市桃園區新埔里經國路369號","administra":"家福股份有限公司","latitude":25.015614,"longitude":121.304911,"grade":"特優級","type2":"商業營業場所","type":"女廁所","exec_":"家福股份有限公司","diaper":0}},{"type":"Feature","id":36,"geometry":{"type":"Point","coordinates":[121.304910999562,25.015614000227]},"properties":{"FID":36,"county":10003,"city":1000301,"village":"新埔里","number":"H010001169","name":"家樂福經國店2F(近長庚生技)男廁","address":"桃園市桃園區新埔里經國路369號","administra":"家福股份有限公司","latitude":25.015614,"longitude":121.304911,"grade":"特優級","type2":"商業營業場所","type":"男廁所","exec_":"家福股份有限公司","diaper":0}},{"type":"Feature","id":37,"geometry":{"type":"Point","coordinates":[121.304910999562,25.015614000227]},"properties":{"FID":37,"county":10003,"city":1000301,"village":"新埔里","number":"H010001168","name":"家樂福經國店2F無障礙廁所","address":"桃園市桃園區新埔里經國路369號","administra":"家福股份有限公司","latitude":25.015614,"longitude":121.304911,"grade":"特優級","type2":"商業營業場所","type":"無障礙廁所","exec_":"家福股份有限公司","diaper":0}},{"type":"Feature","id":38,"geometry":{"type":"Point","coordinates":[121.304910999562,25.015614000227]},"properties":{"FID":38,"county":10003,"city":1000301,"village":"新埔里","number":"H010001167","name":"家樂福經國店2F女廁","address":"桃園市桃園區新埔里經國路369號","administra":"家福股份有限公司","latitude":25.015614,"longitude":121.304911,"grade":"特優級","type2":"商業營業場所","type":"女廁所","exec_":"家福股份有限公司","diaper":0}},{"type":"Feature","id":39,"geometry":{"type":"Point","coordinates":[121.304910999562,25.015614000227]},"properties":{"FID":39,"county":10003,"city":1000301,"village":"新埔里","number":"H010001166","name":"家樂福經國店2F男廁","address":"桃園市桃園區新埔里經國路369號","administra":"家福股份有限公司","latitude":25.015614,"longitude":121.304911,"grade":"特優級","type2":"商業營業場所","type":"男廁所","exec_":"家福股份有限公司","diaper":0}},{"type":"Feature","id":40,"geometry":{"type":"Point","coordinates":[121.304910999562,25.015614000227]},"properties":{"FID":40,"county":10003,"city":1000301,"village":"新埔里","number":"H010001165","name":"家樂福經國店1F(大門)女廁","address":"桃園市桃園區新埔里經國路369號","administra":"家福股份有限公司","latitude":25.015614,"longitude":121.304911,"grade":"特優級","type2":"商業營業場所","type":"女廁所","exec_":"家福股份有限公司","diaper":0}},{"type":"Feature","id":41,"geometry":{"type":"Point","coordinates":[121.304910999562,25.015614000227]},"properties":{"FID":41,"county":10003,"city":1000301,"village":"新埔里","number":"H010001164","name":"家樂福經國店1F(大門)男廁","address":"桃園市桃園區新埔里經國路369號","administra":"家福股份有限公司","latitude":25.015614,"longitude":121.304911,"grade":"特優級","type2":"商業營業場所","type":"男廁所","exec_":"家福股份有限公司","diaper":1}},{"type":"Feature","id":42,"geometry":{"type":"Point","coordinates":[121.304910999562,25.015614000227]},"properties":{"FID":42,"county":10003,"city":1000301,"village":"新埔里","number":"H010001163","name":"家樂福經國店B1(麥當勞旁)無障礙廁所","address":"桃園市桃園區新埔里經國路369號","administra":"家福股份有限公司","latitude":25.015614,"longitude":121.304911,"grade":"特優級","type2":"商業營業場所","type":"無障礙廁所","exec_":"家福股份有限公司","diaper":0}},{"type":"Feature","id":43,"geometry":{"type":"Point","coordinates":[121.304910999562,25.015614000227]},"properties":{"FID":43,"county":10003,"city":1000301,"village":"新埔里","number":"H010001162","name":"家樂福經國店B1(麥當勞旁)女廁","address":"桃園市桃園區新埔里經國路369號","administra":"家福股份有限公司","latitude":25.015614,"longitude":121.304911,"grade":"特優級","type2":"商業營業場所","type":"女廁所","exec_":"家福股份有限公司","diaper":0}},{"type":"Feature","id":44,"geometry":{"type":"Point","coordinates":[121.304910999562,25.015614000227]},"properties":{"FID":44,"county":10003,"city":1000301,"village":"新埔里","number":"H010001161","name":"家樂福經國店B1(麥當勞旁)男廁","address":"桃園市桃園區新埔里經國路369號","administra":"家福股份有限公司","latitude":25.015614,"longitude":121.304911,"grade":"特優級","type2":"商業營業場所","type":"男廁所","exec_":"家福股份有限公司","diaper":0}},{"type":"Feature","id":45,"geometry":{"type":"Point","coordinates":[121.304910999562,25.015614000227]},"properties":{"FID":45,"county":10003,"city":1000301,"village":"新埔里","number":"H010001160","name":"家樂福經國店B1(提款機旁)無障礙廁所","address":"桃園市桃園區新埔里經國路369號","administra":"家福股份有限公司","latitude":25.015614,"longitude":121.304911,"grade":"特優級","type2":"商業營業場所","type":"無障礙廁所","exec_":"家福股份有限公司","diaper":0}},{"type":"Feature","id":46,"geometry":{"type":"Point","coordinates":[121.304910999562,25.015614000227]},"properties":{"FID":46,"county":10003,"city":1000301,"village":"新埔里","number":"H010001159","name":"家樂福經國店B1(提款機旁)女廁","address":"桃園市桃園區新埔里經國路369號","administra":"家福股份有限公司","latitude":25.015614,"longitude":121.304911,"grade":"特優級","type2":"商業營業場所","type":"女廁所","exec_":"家福股份有限公司","diaper":0}},{"type":"Feature","id":47,"geometry":{"type":"Point","coordinates":[121.304910999562,25.015614000227]},"properties":{"FID":47,"county":10003,"city":1000301,"village":"新埔里","number":"H010001158","name":"家樂福經國店B1(提款機旁)男廁","address":"桃園市桃園區新埔里經國路369號","administra":"家福股份有限公司","latitude":25.015614,"longitude":121.304911,"grade":"特優級","type2":"商業營業場所","type":"男廁所","exec_":"家福股份有限公司","diaper":0}},{"type":"Feature","id":48,"geometry":{"type":"Point","coordinates":[121.304910999562,25.015614000227]},"properties":{"FID":48,"county":10003,"city":1000301,"village":"新埔里","number":"H010001157","name":"家樂福經國店B2女廁","address":"桃園市桃園區新埔里經國路369號","administra":"家福股份有限公司","latitude":25.015614,"longitude":121.304911,"grade":"特優級","type2":"商業營業場所","type":"女廁所","exec_":"家福股份有限公司","diaper":0}},{"type":"Feature","id":49,"geometry":{"type":"Point","coordinates":[121.304910999562,25.015614000227]},"properties":{"FID":49,"county":10003,"city":1000301,"village":"新埔里","number":"H010001156","name":"家樂福經國店B2男廁","address":"桃園市桃園區新埔里經國路369號","administra":"家福股份有限公司","latitude":25.015614,"longitude":121.304911,"grade":"特優級","type2":"商業營業場所","type":"男廁所","exec_":"家福股份有限公司","diaper":0}},{"type":"Feature","id":50,"geometry":{"type":"Point","coordinates":[121.298334199757,25.0184268002092]},"properties":{"FID":50,"county":10003,"city":1000301,"village":"自強里","number":"H010000351","name":"KFC桃園南平餐廳女廁","address":"桃園市桃園區自強里南平路330號","administra":"肯德基KFC","latitude":25.0184268,"longitude":121.2983342,"grade":"特優級","type2":"商業營業場所","type":"女廁所","exec_":"肯德基KFC","diaper":0}},{"type":"Feature","id":51,"geometry":{"type":"Point","coordinates":[121.298298399667,25.0185212997331]},"properties":{"FID":51,"county":10003,"city":1000301,"village":"自強里","number":"H010000350","name":"KFC桃園南平餐廳男廁","address":"桃園市桃園區自強里南平路330號","administra":"肯德基KFC","latitude":25.0185213,"longitude":121.2982984,"grade":"特優級","type2":"商業營業場所","type":"男廁所","exec_":"肯德基KFC","diaper":0}},{"type":"Feature","id":52,"geometry":{"type":"Point","coordinates":[121.292730000375,25.0279680004478]},"properties":{"FID":52,"county":10003,"city":1000301,"village":"莊敬里","number":"H010001248","name":"中華中正路加油站女廁","address":"桃園市桃園區莊敬里中正路1511號","administra":"台塑石油股份有限公司加盟店-中華中正路站(中華太子加油站股份有限公司)","latitude":25.027968,"longitude":121.29273,"grade":"特優級","type2":"商業營業場所","type":"女廁所","exec_":"台塑石油股份有限公司加盟店-中華中正路站(中華太子加油站股份有限公司)","diaper":0}},{"type":"Feature","id":53,"geometry":{"type":"Point","coordinates":[121.292730000375,25.0279680004478]},"properties":{"FID":53,"county":10003,"city":1000301,"village":"莊敬里","number":"H010001247","name":"中華中正路加油站男廁","address":"桃園市桃園區莊敬里中正路1511號","administra":"台塑石油股份有限公司加盟店-中華中正路站(中華太子加油站股份有限公司)","latitude":25.027968,"longitude":121.29273,"grade":"特優級","type2":"商業營業場所","type":"男廁所","exec_":"台塑石油股份有限公司加盟店-中華中正路站(中華太子加油站股份有限公司)","diaper":0}},{"type":"Feature","id":54,"geometry":{"type":"Point","coordinates":[121.315592899519,25.0094951000451]},"properties":{"FID":54,"county":10003,"city":1000301,"village":"大興里","number":"H010000979","name":"桃園區福元宮女廁","address":"桃園市桃園區大興里福元街246號","administra":"福元宮","latitude":25.0094951,"longitude":121.3155929,"grade":"特優級","type2":"宗教禮儀場所","type":"女廁所","exec_":"福元宮","diaper":0}},{"type":"Feature","id":55,"geometry":{"type":"Point","coordinates":[121.315605400388,25.0094828997812]},"properties":{"FID":55,"county":10003,"city":1000301,"village":"大興里","number":"H010000978","name":"桃園區福元宮男廁","address":"桃園市桃園區大興里福元街246號","administra":"福元宮","latitude":25.0094829,"longitude":121.3156054,"grade":"特優級","type2":"宗教禮儀場所","type":"男廁所","exec_":"福元宮","diaper":0}},{"type":"Feature","id":56,"geometry":{"type":"Point","coordinates":[121.281595199687,25.0059872402427]},"properties":{"FID":56,"county":10003,"city":1000301,"village":"中成里","number":"H010000503","name":"明聖道院女廁","address":"桃園市桃園區中成里永佳街126號","administra":"桃園區明聖道院","latitude":25.00598724,"longitude":121.2815952,"grade":"特優級","type2":"宗教禮儀場所","type":"女廁所","exec_":"桃園區明聖道院","diaper":0}},{"type":"Feature","id":57,"geometry":{"type":"Point","coordinates":[121.281509400234,25.0058827203626]},"properties":{"FID":57,"county":10003,"city":1000301,"village":"中成里","number":"H010000502","name":"明聖道院男廁","address":"桃園市桃園區中成里永佳街126號","administra":"桃園區明聖道院","latitude":25.00588272,"longitude":121.2815094,"grade":"特優級","type2":"宗教禮儀場所","type":"男廁所","exec_":"桃園區明聖道院","diaper":0}},{"type":"Feature","id":58,"geometry":{"type":"Point","coordinates":[121.312223400333,24.9979838501516]},"properties":{"FID":58,"county":10003,"city":1000301,"village":"朝陽里","number":"H010000887","name":"朝陽公園女廁","address":"桃園市桃園區朝陽里三民路二段212號","administra":"桃園市桃園區公所","latitude":24.99798385,"longitude":121.3122234,"grade":"特優級","type2":"公園","type":"女廁所","exec_":"桃園市桃園區公所公燈管理課","diaper":0}},{"type":"Feature","id":59,"geometry":{"type":"Point","coordinates":[121.311837099807,25.0000705599861]},"properties":{"FID":59,"county":10003,"city":1000301,"village":"朝陽里","number":"H010000886","name":"朝陽公園男廁","address":"桃園市桃園區朝陽里三民路二段212號","administra":"桃園市桃園區公所","latitude":25.00007056,"longitude":121.3118371,"grade":"特優級","type2":"公園","type":"男廁所","exec_":"桃園市桃園區公所公燈管理課","diaper":0}},{"type":"Feature","id":60,"geometry":{"type":"Point","coordinates":[121.278651000289,24.990807999866]},"properties":{"FID":60,"county":10003,"city":1000301,"village":"龍安里","number":"H010001152","name":"桃園市地政事務所3F無障礙廁所","address":"桃園市桃園區龍安里國豐三街123號","administra":"桃園市地政事務所","latitude":24.990808,"longitude":121.278651,"grade":"特優級","type2":"民眾洽公場所","type":"無障礙廁所","exec_":"桃園市地政事務所","diaper":0}},{"type":"Feature","id":61,"geometry":{"type":"Point","coordinates":[121.278651000289,24.990807999866]},"properties":{"FID":61,"county":10003,"city":1000301,"village":"龍安里","number":"H010001151","name":"桃園市地政事務所2F女廁","address":"桃園市桃園區龍安里國豐三街123號","administra":"桃園市地政事務所","latitude":24.990808,"longitude":121.278651,"grade":"特優級","type2":"民眾洽公場所","type":"女廁所","exec_":"桃園市地政事務所","diaper":0}},{"type":"Feature","id":62,"geometry":{"type":"Point","coordinates":[121.278651000289,24.990807999866]},"properties":{"FID":62,"county":10003,"city":1000301,"village":"龍安里","number":"H010001150","name":"桃園市地政事務所2F男廁","address":"桃園市桃園區龍安里國豐三街123號","administra":"桃園市地政事務所","latitude":24.990808,"longitude":121.278651,"grade":"特優級","type2":"民眾洽公場所","type":"男廁所","exec_":"桃園市地政事務所","diaper":0}},{"type":"Feature","id":63,"geometry":{"type":"Point","coordinates":[121.278651000289,24.990807999866]},"properties":{"FID":63,"county":10003,"city":1000301,"village":"龍安里","number":"H010001149","name":"桃園市戶政事務所1F無障礙廁所","address":"桃園市桃園區龍安里國豐三街123號","administra":"桃園市戶政事務所","latitude":24.990808,"longitude":121.278651,"grade":"特優級","type2":"民眾洽公場所","type":"無障礙廁所","exec_":"桃園市戶政事務所","diaper":0}},{"type":"Feature","id":64,"geometry":{"type":"Point","coordinates":[121.278651000289,24.990807999866]},"properties":{"FID":64,"county":10003,"city":1000301,"village":"龍安里","number":"H010001148","name":"桃園市戶政事務所1F女廁","address":"桃園市桃園區龍安里國豐三街123號","administra":"桃園市戶政事務所","latitude":24.990808,"longitude":121.278651,"grade":"特優級","type2":"民眾洽公場所","type":"女廁所","exec_":"桃園市戶政事務所","diaper":0}},{"type":"Feature","id":65,"geometry":{"type":"Point","coordinates":[121.278651000289,24.990807999866]},"properties":{"FID":65,"county":10003,"city":1000301,"village":"龍安里","number":"H010001147","name":"桃園市戶政事務所1F男廁","address":"桃園市桃園區龍安里國豐三街123號","administra":"桃園市戶政事務所","latitude":24.990808,"longitude":121.278651,"grade":"特優級","type2":"民眾洽公場所","type":"男廁所","exec_":"桃園市戶政事務所","diaper":0}},{"type":"Feature","id":66,"geometry":{"type":"Point","coordinates":[121.306566000171,24.9804180001823]},"properties":{"FID":66,"county":10003,"city":1000301,"village":"福林里","number":"H010000584","name":"福林公園女廁","address":"桃園市桃園區福林里介壽路281號","administra":"桃園市桃園區公所","latitude":24.980418,"longitude":121.306566,"grade":"特優級","type2":"公園","type":"女廁所","exec_":"桃園市桃園區公所公燈管理課","diaper":0}},{"type":"Feature","id":67,"geometry":{"type":"Point","coordinates":[121.306566000171,24.9804180001823]},"properties":{"FID":67,"county":10003,"city":1000301,"village":"福林里","number":"H010000583","name":"福林公園男廁","address":"桃園市桃園區福林里介壽路281號","administra":"桃園市桃園區公所","latitude":24.980418,"longitude":121.306566,"grade":"特優級","type2":"公園","type":"男廁所","exec_":"桃園市桃園區公所公燈管理課","diaper":0}},{"type":"Feature","id":68,"geometry":{"type":"Point","coordinates":[121.328802099922,25.0018341696551]},"properties":{"FID":68,"county":10003,"city":1000301,"village":"三元里","number":"H010001293","name":"虎頭山公園公廁2號無障礙廁所","address":"桃園市桃園區三元里公園路","administra":"桃園市政府風景區管理處","latitude":25.00183417,"longitude":121.3288021,"grade":"特優級","type2":"公園","type":"無障礙廁所","exec_":"桃園市政府風景區管理處","diaper":0}},{"type":"Feature","id":69,"geometry":{"type":"Point","coordinates":[121.327243000063,25.0017119998209]},"properties":{"FID":69,"county":10003,"city":1000301,"village":"三元里","number":"H010001292","name":"虎頭山公園公廁1號風管處旁無障礙廁所","address":"桃園市桃園區三元里公園路","administra":"桃園市政府風景區管理處","latitude":25.001712,"longitude":121.327243,"grade":"特優級","type2":"公園","type":"無障礙廁所","exec_":"桃園市政府風景區管理處","diaper":0}},{"type":"Feature","id":70,"geometry":{"type":"Point","coordinates":[121.328576999575,25.002100000184]},"properties":{"FID":70,"county":10003,"city":1000301,"village":"三元里","number":"H010001309","name":"虎頭山公園公廁5號太陽亭女廁","address":"桃園市桃園區三元里公園路","administra":"桃園市政府風景區管理處","latitude":25.0021,"longitude":121.328577,"grade":"特優級","type2":"公園","type":"女廁所","exec_":"桃園市政府風景區管理處","diaper":0}},{"type":"Feature","id":71,"geometry":{"type":"Point","coordinates":[121.328576999575,25.002100000184]},"properties":{"FID":71,"county":10003,"city":1000301,"village":"三元里","number":"H010001308","name":"虎頭山公園公廁5號太陽亭男廁","address":"桃園市桃園區三元里公園路","administra":"桃園市政府風景區管理處","latitude":25.0021,"longitude":121.328577,"grade":"特優級","type2":"公園","type":"男廁所","exec_":"桃園市政府風景區管理處","diaper":0}},{"type":"Feature","id":72,"geometry":{"type":"Point","coordinates":[121.328576999575,25.002100000184]},"properties":{"FID":72,"county":10003,"city":1000301,"village":"三元里","number":"H010001307","name":"虎頭山公園公廁4號榕樹園無障礙廁所","address":"桃園市桃園區三元里公園路","administra":"桃園市政府風景區管理處","latitude":25.0021,"longitude":121.328577,"grade":"特優級","type2":"公園","type":"無障礙廁所","exec_":"桃園市政府風景區管理處","diaper":1}},{"type":"Feature","id":73,"geometry":{"type":"Point","coordinates":[121.328576999575,25.002100000184]},"properties":{"FID":73,"county":10003,"city":1000301,"village":"三元里","number":"H010001306","name":"虎頭山公園公廁4號榕樹園女廁","address":"桃園市桃園區三元里公園路","administra":"桃園市政府風景區管理處","latitude":25.0021,"longitude":121.328577,"grade":"特優級","type2":"公園","type":"女廁所","exec_":"桃園市政府風景區管理處","diaper":0}},{"type":"Feature","id":74,"geometry":{"type":"Point","coordinates":[121.328576999575,25.002100000184]},"properties":{"FID":74,"county":10003,"city":1000301,"village":"三元里","number":"H010001305","name":"虎頭山公園公廁4號榕樹園男廁","address":"桃園市桃園區三元里公園路","administra":"桃園市政府風景區管理處","latitude":25.0021,"longitude":121.328577,"grade":"特優級","type2":"公園","type":"男廁所","exec_":"桃園市政府風景區管理處","diaper":0}},{"type":"Feature","id":75,"geometry":{"type":"Point","coordinates":[121.329001199785,25.0006152901701]},"properties":{"FID":75,"county":10003,"city":1000301,"village":"三元里","number":"H010001304","name":"虎頭山公園公廁3號櫻花步道女廁","address":"桃園市桃園區三元里公園路","administra":"桃園市政府風景區管理處","latitude":25.00061529,"longitude":121.3290012,"grade":"特優級","type2":"公園","type":"女廁所","exec_":"桃園市政府風景區管理處","diaper":0}},{"type":"Feature","id":76,"geometry":{"type":"Point","coordinates":[121.329001199785,25.0006152901701]},"properties":{"FID":76,"county":10003,"city":1000301,"village":"三元里","number":"H010001303","name":"虎頭山公園公廁3號櫻花步道男廁","address":"桃園市桃園區三元里公園路","administra":"桃園市政府風景區管理處","latitude":25.00061529,"longitude":121.3290012,"grade":"特優級","type2":"公園","type":"男廁所","exec_":"桃園市政府風景區管理處","diaper":0}},{"type":"Feature","id":77,"geometry":{"type":"Point","coordinates":[121.328576999575,25.002100000184]},"properties":{"FID":77,"county":10003,"city":1000301,"village":"三元里","number":"H010001302","name":"虎頭山公園公廁2號烤肉區女廁","address":"桃園市桃園區三元里公園路","administra":"桃園市政府風景區管理處","latitude":25.0021,"longitude":121.328577,"grade":"特優級","type2":"公園","type":"女廁所","exec_":"桃園市政府風景區管理處","diaper":0}},{"type":"Feature","id":78,"geometry":{"type":"Point","coordinates":[121.328576999575,25.002100000184]},"properties":{"FID":78,"county":10003,"city":1000301,"village":"三元里","number":"H010001301","name":"虎頭山公園公廁2號烤肉區男廁","address":"桃園市桃園區三元里公園路","administra":"桃園市政府風景區管理處","latitude":25.0021,"longitude":121.328577,"grade":"特優級","type2":"公園","type":"男廁所","exec_":"桃園市政府風景區管理處","diaper":0}},{"type":"Feature","id":79,"geometry":{"type":"Point","coordinates":[121.327243000063,25.0017119998209]},"properties":{"FID":79,"county":10003,"city":1000301,"village":"三元里","number":"H010001300","name":"虎頭山公園公廁1號風管處旁女廁","address":"桃園市桃園區三元里公園路","administra":"桃園市政府風景區管理處","latitude":25.001712,"longitude":121.327243,"grade":"特優級","type2":"公園","type":"女廁所","exec_":"桃園市政府風景區管理處","diaper":0}},{"type":"Feature","id":80,"geometry":{"type":"Point","coordinates":[121.327243000063,25.0017119998209]},"properties":{"FID":80,"county":10003,"city":1000301,"village":"三元里","number":"H010001299","name":"虎頭山公園公廁1號風管處旁男廁","address":"桃園市桃園區三元里公園路","administra":"桃園市政府風景區管理處","latitude":25.001712,"longitude":121.327243,"grade":"特優級","type2":"公園","type":"男廁所","exec_":"桃園市政府風景區管理處","diaper":0}},{"type":"Feature","id":81,"geometry":{"type":"Point","coordinates":[121.328549999853,25.0123095596932]},"properties":{"FID":81,"county":10003,"city":1000301,"village":"三元里","number":"H010001315","name":"虎頭山環保公園無障礙廁所","address":"桃園市桃園區三元里成功路三段","administra":"桃園市政府風景區管理處","latitude":25.01230956,"longitude":121.32855,"grade":"特優級","type2":"公園","type":"無障礙廁所","exec_":"桃園市政府風景區管理處","diaper":1}},{"type":"Feature","id":82,"geometry":{"type":"Point","coordinates":[121.328549999853,25.0123095596932]},"properties":{"FID":82,"county":10003,"city":1000301,"village":"三元里","number":"H010001314","name":"虎頭山環保公園女廁","address":"桃園市桃園區三元里成功路三段","administra":"桃園市政府風景區管理處","latitude":25.01230956,"longitude":121.32855,"grade":"特優級","type2":"公園","type":"女廁所","exec_":"桃園市政府風景區管理處","diaper":0}},{"type":"Feature","id":83,"geometry":{"type":"Point","coordinates":[121.328549999853,25.0123095596932]},"properties":{"FID":83,"county":10003,"city":1000301,"village":"三元里","number":"H010001313","name":"虎頭山環保公園男廁","address":"桃園市桃園區三元里成功路三段","administra":"桃園市政府風景區管理處","latitude":25.01230956,"longitude":121.32855,"grade":"特優級","type2":"公園","type":"男廁所","exec_":"桃園市政府風景區管理處","diaper":0}},{"type":"Feature","id":84,"geometry":{"type":"Point","coordinates":[121.32517349974,25.0000387301174]},"properties":{"FID":84,"county":10003,"city":1000301,"village":"三元里","number":"H010001312","name":"成功公園無障礙廁所","address":"桃園市桃園區三元里成功路三段","administra":"桃園市桃園區公所","latitude":25.00003873,"longitude":121.3251735,"grade":"特優級","type2":"公園","type":"無障礙廁所","exec_":"桃園市桃園區公所公燈管理課","diaper":0}},{"type":"Feature","id":85,"geometry":{"type":"Point","coordinates":[121.32517349974,25.0000387301174]},"properties":{"FID":85,"county":10003,"city":1000301,"village":"三元里","number":"H010001311","name":"成功公園女廁","address":"桃園市桃園區三元里成功路三段","administra":"桃園市桃園區公所","latitude":25.00003873,"longitude":121.3251735,"grade":"特優級","type2":"公園","type":"女廁所","exec_":"桃園市桃園區公所公燈管理課","diaper":0}},{"type":"Feature","id":86,"geometry":{"type":"Point","coordinates":[121.32517349974,25.0000387301174]},"properties":{"FID":86,"county":10003,"city":1000301,"village":"三元里","number":"H010001310","name":"成功公園男廁","address":"桃園市桃園區三元里成功路三段","administra":"桃園市桃園區公所","latitude":25.00003873,"longitude":121.3251735,"grade":"特優級","type2":"公園","type":"男廁所","exec_":"桃園市桃園區公所公燈管理課","diaper":0}},{"type":"Feature","id":87,"geometry":{"type":"Point","coordinates":[121.327750700434,25.001273239565]},"properties":{"FID":87,"county":10003,"city":1000301,"village":"三元里","number":"H010001412","name":"桃園區孔子廟無障礙廁","address":"桃園市桃園區三元里公園路42號","administra":"桃園市政府民政局","latitude":25.00127324,"longitude":121.3277507,"grade":"特優級","type2":"宗教禮儀場所","type":"無障礙廁所","exec_":"桃園市政府孔廟忠烈祠聯合管理所","diaper":0}},{"type":"Feature","id":88,"geometry":{"type":"Point","coordinates":[121.327737300236,25.0012115598534]},"properties":{"FID":88,"county":10003,"city":1000301,"village":"三元里","number":"H010001411","name":"桃園區孔子廟女廁","address":"桃園市桃園區三元里公園路42號","administra":"桃園市政府民政局","latitude":25.00121156,"longitude":121.3277373,"grade":"特優級","type2":"宗教禮儀場所","type":"女廁所","exec_":"桃園市政府孔廟忠烈祠聯合管理所","diaper":0}},{"type":"Feature","id":89,"geometry":{"type":"Point","coordinates":[121.327713099735,25.0012246301511]},"properties":{"FID":89,"county":10003,"city":1000301,"village":"三元里","number":"H010001410","name":"桃園區孔子廟男廁","address":"桃園市桃園區三元里公園路42號","administra":"桃園市政府民政局","latitude":25.00122463,"longitude":121.3277131,"grade":"特優級","type2":"宗教禮儀場所","type":"男廁所","exec_":"桃園市政府孔廟忠烈祠聯合管理所","diaper":0}},{"type":"Feature","id":90,"geometry":{"type":"Point","coordinates":[121.322729600011,25.0092045899657]},"properties":{"FID":90,"county":10003,"city":1000301,"village":"三元里","number":"H010001318","name":"桃園區忠義公園無障礙廁所","address":"桃園市桃園區三元里三元街287巷","administra":"桃園市桃園區公所","latitude":25.00920459,"longitude":121.3227296,"grade":"特優級","type2":"公園","type":"無障礙廁所","exec_":"桃園市桃園區公所公燈管理課","diaper":0}},{"type":"Feature","id":91,"geometry":{"type":"Point","coordinates":[121.322858300083,25.0090490197204]},"properties":{"FID":91,"county":10003,"city":1000301,"village":"三元里","number":"H010001317","name":"桃園區忠義公園女廁","address":"桃園市桃園區三元里三元街287巷","administra":"桃園市桃園區公所","latitude":25.00904902,"longitude":121.3228583,"grade":"特優級","type2":"公園","type":"女廁所","exec_":"桃園市桃園區公所公燈管理課","diaper":0}},{"type":"Feature","id":92,"geometry":{"type":"Point","coordinates":[121.32263570041,25.0090990996358]},"properties":{"FID":92,"county":10003,"city":1000301,"village":"三元里","number":"H010001316","name":"桃園區忠義公園男廁","address":"桃園市桃園區三元里三元街287巷","administra":"桃園市桃園區公所","latitude":25.0090991,"longitude":121.3226357,"grade":"特優級","type2":"公園","type":"男廁所","exec_":"桃園市桃園區公所公燈管理課","diaper":0}},{"type":"Feature","id":93,"geometry":{"type":"Point","coordinates":[121.324102999523,25.0029530003745]},"properties":{"FID":93,"county":10003,"city":1000301,"village":"三元里","number":"H010001403","name":"桃園榮民醫院C棟行政大樓地下室檔案室旁女廁(36)","address":"桃園市桃園區三元里成功路三段100號","administra":"國軍退除役官兵輔導委員會","latitude":25.002953,"longitude":121.324103,"grade":"特優級","type2":"社福機構、集會場所","type":"女廁所","exec_":"桃園榮民醫院","diaper":0}},{"type":"Feature","id":94,"geometry":{"type":"Point","coordinates":[121.324102999523,25.0029530003745]},"properties":{"FID":94,"county":10003,"city":1000301,"village":"三元里","number":"H010001402","name":"桃園榮民醫院C棟行政大樓地下室檔案室旁男廁(35)","address":"桃園市桃園區三元里成功路三段100號","administra":"國軍退除役官兵輔導委員會","latitude":25.002953,"longitude":121.324103,"grade":"特優級","type2":"社福機構、集會場所","type":"男廁所","exec_":"桃園榮民醫院","diaper":0}},{"type":"Feature","id":95,"geometry":{"type":"Point","coordinates":[121.324102999523,25.0029530003745]},"properties":{"FID":95,"county":10003,"city":1000301,"village":"三元里","number":"H010001401","name":"桃園榮民醫院C棟行政大樓地下室申報室旁女廁(34)","address":"桃園市桃園區三元里成功路三段100號","administra":"國軍退除役官兵輔導委員會","latitude":25.002953,"longitude":121.324103,"grade":"特優級","type2":"社福機構、集會場所","type":"女廁所","exec_":"桃園榮民醫院","diaper":0}},{"type":"Feature","id":96,"geometry":{"type":"Point","coordinates":[121.324102999523,25.0029530003745]},"properties":{"FID":96,"county":10003,"city":1000301,"village":"三元里","number":"H010001400","name":"桃園榮民醫院C棟行政大樓地下室申報室旁男廁(33)","address":"桃園市桃園區三元里成功路三段100號","administra":"國軍退除役官兵輔導委員會","latitude":25.002953,"longitude":121.324103,"grade":"特優級","type2":"社福機構、集會場所","type":"男廁所","exec_":"桃園榮民醫院","diaper":0}},{"type":"Feature","id":97,"geometry":{"type":"Point","coordinates":[121.324102999523,25.0029530003745]},"properties":{"FID":97,"county":10003,"city":1000301,"village":"三元里","number":"H010001399","name":"桃園榮民醫院C棟行政大樓1F輔導室旁女廁(32)","address":"桃園市桃園區三元里成功路三段100號","administra":"國軍退除役官兵輔導委員會","latitude":25.002953,"longitude":121.324103,"grade":"特優級","type2":"社福機構、集會場所","type":"女廁所","exec_":"桃園榮民醫院","diaper":0}},{"type":"Feature","id":98,"geometry":{"type":"Point","coordinates":[121.324102999523,25.0029530003745]},"properties":{"FID":98,"county":10003,"city":1000301,"village":"三元里","number":"H010001398","name":"桃園榮民醫院C棟行政大樓1F輔導室旁男廁(31)","address":"桃園市桃園區三元里成功路三段100號","administra":"國軍退除役官兵輔導委員會","latitude":25.002953,"longitude":121.324103,"grade":"特優級","type2":"社福機構、集會場所","type":"男廁所","exec_":"桃園榮民醫院","diaper":0}},{"type":"Feature","id":99,"geometry":{"type":"Point","coordinates":[121.324102999523,25.0029530003745]},"properties":{"FID":99,"county":10003,"city":1000301,"village":"三元里","number":"H010001397","name":"桃園榮民醫院C棟行政大樓1F秘書室旁女廁(30)","address":"桃園市桃園區三元里成功路三段100號","administra":"國軍退除役官兵輔導委員會","latitude":25.002953,"longitude":121.324103,"grade":"特優級","type2":"社福機構、集會場所","type":"女廁所","exec_":"桃園榮民醫院","diaper":0}},{"type":"Feature","id":100,"geometry":{"type":"Point","coordinates":[121.324102999523,25.0029530003745]},"properties":{"FID":100,"county":10003,"city":1000301,"village":"三元里","number":"H010001396","name":"桃園榮民醫院C棟行政大樓1F秘書室旁男廁(29)","address":"桃園市桃園區三元里成功路三段100號","administra":"國軍退除役官兵輔導委員會","latitude":25.002953,"longitude":121.324103,"grade":"特優級","type2":"社福機構、集會場所","type":"男廁所","exec_":"桃園榮民醫院","diaper":0}},{"type":"Feature","id":101,"geometry":{"type":"Point","coordinates":[121.324102999523,25.0029530003745]},"properties":{"FID":101,"county":10003,"city":1000301,"village":"三元里","number":"H010001395","name":"桃園榮民醫院B棟醫療大樓地下室女廁(28)","address":"桃園市桃園區三元里成功路三段100號","administra":"國軍退除役官兵輔導委員會","latitude":25.002953,"longitude":121.324103,"grade":"特優級","type2":"社福機構、集會場所","type":"女廁所","exec_":"桃園榮民醫院","diaper":0}},{"type":"Feature","id":102,"geometry":{"type":"Point","coordinates":[121.324102999523,25.0029530003745]},"properties":{"FID":102,"county":10003,"city":1000301,"village":"三元里","number":"H010001394","name":"桃園榮民醫院B棟醫療大樓地下室男廁(27)","address":"桃園市桃園區三元里成功路三段100號","administra":"國軍退除役官兵輔導委員會","latitude":25.002953,"longitude":121.324103,"grade":"特優級","type2":"社福機構、集會場所","type":"男廁所","exec_":"桃園榮民醫院","diaper":0}},{"type":"Feature","id":103,"geometry":{"type":"Point","coordinates":[121.324102999523,25.0029530003745]},"properties":{"FID":103,"county":10003,"city":1000301,"village":"三元里","number":"H010001393","name":"桃園榮民醫院B棟醫療大樓3F牙科旁女廁(26)","address":"桃園市桃園區三元里成功路三段100號","administra":"國軍退除役官兵輔導委員會","latitude":25.002953,"longitude":121.324103,"grade":"特優級","type2":"社福機構、集會場所","type":"女廁所","exec_":"桃園榮民醫院","diaper":0}},{"type":"Feature","id":104,"geometry":{"type":"Point","coordinates":[121.324102999523,25.0029530003745]},"properties":{"FID":104,"county":10003,"city":1000301,"village":"三元里","number":"H010001392","name":"桃園榮民醫院B棟醫療大樓3F牙科旁男廁(25)","address":"桃園市桃園區三元里成功路三段100號","administra":"國軍退除役官兵輔導委員會","latitude":25.002953,"longitude":121.324103,"grade":"特優級","type2":"社福機構、集會場所","type":"男廁所","exec_":"桃園榮民醫院","diaper":0}},{"type":"Feature","id":105,"geometry":{"type":"Point","coordinates":[121.324102999523,25.0029530003745]},"properties":{"FID":105,"county":10003,"city":1000301,"village":"三元里","number":"H010001391","name":"桃園榮民醫院B棟醫療大樓3F ICB旁女廁(24)","address":"桃園市桃園區三元里成功路三段100號","administra":"國軍退除役官兵輔導委員會","latitude":25.002953,"longitude":121.324103,"grade":"特優級","type2":"社福機構、集會場所","type":"女廁所","exec_":"桃園榮民醫院","diaper":0}},{"type":"Feature","id":106,"geometry":{"type":"Point","coordinates":[121.324102999523,25.0029530003745]},"properties":{"FID":106,"county":10003,"city":1000301,"village":"三元里","number":"H010001390","name":"桃園榮民醫院B棟醫療大樓3F ICB旁男廁(23)","address":"桃園市桃園區三元里成功路三段100號","administra":"國軍退除役官兵輔導委員會","latitude":25.002953,"longitude":121.324103,"grade":"特優級","type2":"社福機構、集會場所","type":"男廁所","exec_":"桃園榮民醫院","diaper":0}},{"type":"Feature","id":107,"geometry":{"type":"Point","coordinates":[121.324102999523,25.0029530003745]},"properties":{"FID":107,"county":10003,"city":1000301,"village":"三元里","number":"H010001388","name":"桃園榮民醫院B棟醫療大樓3F ICU旁女廁(21)","address":"桃園市桃園區三元里成功路三段100號","administra":"國軍退除役官兵輔導委員會","latitude":25.002953,"longitude":121.324103,"grade":"特優級","type2":"社福機構、集會場所","type":"女廁所","exec_":"桃園榮民醫院","diaper":0}},{"type":"Feature","id":108,"geometry":{"type":"Point","coordinates":[121.324102999523,25.0029530003745]},"properties":{"FID":108,"county":10003,"city":1000301,"village":"三元里","number":"H010001387","name":"桃園榮民醫院B棟醫療大樓3F ICU旁男廁(20)","address":"桃園市桃園區三元里成功路三段100號","administra":"國軍退除役官兵輔導委員會","latitude":25.002953,"longitude":121.324103,"grade":"特優級","type2":"社福機構、集會場所","type":"男廁所","exec_":"桃園榮民醫院","diaper":0}},{"type":"Feature","id":109,"geometry":{"type":"Point","coordinates":[121.324102999523,25.0029530003745]},"properties":{"FID":109,"county":10003,"city":1000301,"village":"三元里","number":"H010001386","name":"桃園榮民醫院B棟醫療大樓2F小兒科女無障礙廁所(19)","address":"桃園市桃園區三元里成功路三段100號","administra":"國軍退除役官兵輔導委員會","latitude":25.002953,"longitude":121.324103,"grade":"特優級","type2":"社福機構、集會場所","type":"無障礙廁所","exec_":"桃園榮民醫院","diaper":0}},{"type":"Feature","id":110,"geometry":{"type":"Point","coordinates":[121.324102999523,25.0029530003745]},"properties":{"FID":110,"county":10003,"city":1000301,"village":"三元里","number":"H010001385","name":"桃園榮民醫院B棟醫療大樓2F小兒科男廁(18)","address":"桃園市桃園區三元里成功路三段100號","administra":"國軍退除役官兵輔導委員會","latitude":25.002953,"longitude":121.324103,"grade":"特優級","type2":"社福機構、集會場所","type":"男廁所","exec_":"桃園榮民醫院","diaper":0}},{"type":"Feature","id":111,"geometry":{"type":"Point","coordinates":[121.324102999523,25.0029530003745]},"properties":{"FID":111,"county":10003,"city":1000301,"village":"三元里","number":"H010001384","name":"桃園榮民醫院B棟醫療大樓2F產房旁女無障礙廁所(17)","address":"桃園市桃園區三元里成功路三段100號","administra":"國軍退除役官兵輔導委員會","latitude":25.002953,"longitude":121.324103,"grade":"特優級","type2":"社福機構、集會場所","type":"無障礙廁所","exec_":"桃園榮民醫院","diaper":0}},{"type":"Feature","id":112,"geometry":{"type":"Point","coordinates":[121.324102999523,25.0029530003745]},"properties":{"FID":112,"county":10003,"city":1000301,"village":"三元里","number":"H010001383","name":"桃園榮民醫院B棟醫療大樓2F產房旁男無障礙廁所(16)","address":"桃園市桃園區三元里成功路三段100號","administra":"國軍退除役官兵輔導委員會","latitude":25.002953,"longitude":121.324103,"grade":"特優級","type2":"社福機構、集會場所","type":"無障礙廁所","exec_":"桃園榮民醫院","diaper":0}},{"type":"Feature","id":113,"geometry":{"type":"Point","coordinates":[121.324102999523,25.0029530003745]},"properties":{"FID":113,"county":10003,"city":1000301,"village":"三元里","number":"H010001381","name":"桃園榮民醫院B棟醫療大樓2F內科檢查室旁男廁(14)","address":"桃園市桃園區三元里成功路三段100號","administra":"國軍退除役官兵輔導委員會","latitude":25.002953,"longitude":121.324103,"grade":"特優級","type2":"社福機構、集會場所","type":"男廁所","exec_":"桃園榮民醫院","diaper":0}},{"type":"Feature","id":114,"geometry":{"type":"Point","coordinates":[121.318995999884,25.003108180245]},"properties":{"FID":114,"county":10003,"city":1000301,"village":"三元里","number":"H010001380","name":"桃園榮民醫院B棟醫療大樓2F耳鼻喉科旁女廁(13)","address":"桃園市桃園區三元里成功路三段100號","administra":"國軍退除役官兵輔導委員會","latitude":25.00310818,"longitude":121.318996,"grade":"特優級","type2":"社福機構、集會場所","type":"女廁所","exec_":"桃園榮民醫院","diaper":1}},{"type":"Feature","id":115,"geometry":{"type":"Point","coordinates":[121.324102999523,25.0029530003745]},"properties":{"FID":115,"county":10003,"city":1000301,"village":"三元里","number":"H010001379","name":"桃園榮民醫院B棟醫療大樓2F耳鼻喉科旁男廁(12)","address":"桃園市桃園區三元里成功路三段100號","administra":"國軍退除役官兵輔導委員會","latitude":25.002953,"longitude":121.324103,"grade":"特優級","type2":"社福機構、集會場所","type":"男廁所","exec_":"桃園榮民醫院","diaper":0}},{"type":"Feature","id":116,"geometry":{"type":"Point","coordinates":[121.324102999523,25.0029530003745]},"properties":{"FID":116,"county":10003,"city":1000301,"village":"三元里","number":"H010001378","name":"桃園榮民醫院B棟醫療大樓1F外科無障礙廁所(11)","address":"桃園市桃園區三元里成功路三段100號","administra":"國軍退除役官兵輔導委員會","latitude":25.002953,"longitude":121.324103,"grade":"特優級","type2":"社福機構、集會場所","type":"無障礙廁所","exec_":"桃園榮民醫院","diaper":0}},{"type":"Feature","id":117,"geometry":{"type":"Point","coordinates":[121.324102999523,25.0029530003745]},"properties":{"FID":117,"county":10003,"city":1000301,"village":"三元里","number":"H010001377","name":"桃園榮民醫院B棟醫療大樓1F外科女廁(10)","address":"桃園市桃園區三元里成功路三段100號","administra":"國軍退除役官兵輔導委員會","latitude":25.002953,"longitude":121.324103,"grade":"特優級","type2":"社福機構、集會場所","type":"女廁所","exec_":"桃園榮民醫院","diaper":0}},{"type":"Feature","id":118,"geometry":{"type":"Point","coordinates":[121.324102999523,25.0029530003745]},"properties":{"FID":118,"county":10003,"city":1000301,"village":"三元里","number":"H010001376","name":"桃園榮民醫院B棟醫療大樓1F外科男廁(9)","address":"桃園市桃園區三元里成功路三段100號","administra":"國軍退除役官兵輔導委員會","latitude":25.002953,"longitude":121.324103,"grade":"特優級","type2":"社福機構、集會場所","type":"男廁所","exec_":"桃園榮民醫院","diaper":0}},{"type":"Feature","id":119,"geometry":{"type":"Point","coordinates":[121.324102999523,25.0029530003745]},"properties":{"FID":119,"county":10003,"city":1000301,"village":"三元里","number":"H010001375","name":"桃園榮民醫院B棟醫療大樓1F內科無障礙廁所(8)","address":"桃園市桃園區三元里成功路三段100號","administra":"國軍退除役官兵輔導委員會","latitude":25.002953,"longitude":121.324103,"grade":"特優級","type2":"社福機構、集會場所","type":"無障礙廁所","exec_":"桃園榮民醫院","diaper":1}},{"type":"Feature","id":120,"geometry":{"type":"Point","coordinates":[121.324102999523,25.0029530003745]},"properties":{"FID":120,"county":10003,"city":1000301,"village":"三元里","number":"H010001374","name":"桃園榮民醫院B棟醫療大樓1F內科女廁(7)","address":"桃園市桃園區三元里成功路三段100號","administra":"國軍退除役官兵輔導委員會","latitude":25.002953,"longitude":121.324103,"grade":"特優級","type2":"社福機構、集會場所","type":"女廁所","exec_":"桃園榮民醫院","diaper":0}},{"type":"Feature","id":121,"geometry":{"type":"Point","coordinates":[121.324102999523,25.0029530003745]},"properties":{"FID":121,"county":10003,"city":1000301,"village":"三元里","number":"H010001373","name":"桃園榮民醫院B棟醫療大樓1F內科男廁(6)","address":"桃園市桃園區三元里成功路三段100號","administra":"國軍退除役官兵輔導委員會","latitude":25.002953,"longitude":121.324103,"grade":"特優級","type2":"社福機構、集會場所","type":"男廁所","exec_":"桃園榮民醫院","diaper":0}},{"type":"Feature","id":122,"geometry":{"type":"Point","coordinates":[121.324102999523,25.0029530003745]},"properties":{"FID":122,"county":10003,"city":1000301,"village":"三元里","number":"H010001372","name":"桃園榮民醫院A棟病房大樓B1女廁(5)","address":"桃園市桃園區三元里成功路三段100號","administra":"國軍退除役官兵輔導委員會","latitude":25.002953,"longitude":121.324103,"grade":"特優級","type2":"社福機構、集會場所","type":"女廁所","exec_":"桃園榮民醫院","diaper":0}},{"type":"Feature","id":123,"geometry":{"type":"Point","coordinates":[121.324102999523,25.0029530003745]},"properties":{"FID":123,"county":10003,"city":1000301,"village":"三元里","number":"H010001371","name":"桃園榮民醫院A棟病房大樓B1男廁(4)","address":"桃園市桃園區三元里成功路三段100號","administra":"國軍退除役官兵輔導委員會","latitude":25.002953,"longitude":121.324103,"grade":"特優級","type2":"社福機構、集會場所","type":"男廁所","exec_":"桃園榮民醫院","diaper":0}},{"type":"Feature","id":124,"geometry":{"type":"Point","coordinates":[121.324102999523,25.0029530003745]},"properties":{"FID":124,"county":10003,"city":1000301,"village":"三元里","number":"H010001370","name":"桃園榮民醫院A棟病房大樓1F無障礙廁所(3)","address":"桃園市桃園區三元里成功路三段100號","administra":"國軍退除役官兵輔導委員會","latitude":25.002953,"longitude":121.324103,"grade":"特優級","type2":"社福機構、集會場所","type":"無障礙廁所","exec_":"桃園榮民醫院","diaper":0}},{"type":"Feature","id":125,"geometry":{"type":"Point","coordinates":[121.324102999523,25.0029530003745]},"properties":{"FID":125,"county":10003,"city":1000301,"village":"三元里","number":"H010001369","name":"桃園榮民醫院A棟病房大樓1F女廁(2)","address":"桃園市桃園區三元里成功路三段100號","administra":"國軍退除役官兵輔導委員會","latitude":25.002953,"longitude":121.324103,"grade":"特優級","type2":"社福機構、集會場所","type":"女廁所","exec_":"桃園榮民醫院","diaper":0}},{"type":"Feature","id":126,"geometry":{"type":"Point","coordinates":[121.324102999523,25.0029530003745]},"properties":{"FID":126,"county":10003,"city":1000301,"village":"三元里","number":"H010001368","name":"桃園榮民醫院A棟病房大樓1F男廁(1)","address":"桃園市桃園區三元里成功路三段100號","administra":"國軍退除役官兵輔導委員會","latitude":25.002953,"longitude":121.324103,"grade":"特優級","type2":"社福機構、集會場所","type":"男廁所","exec_":"桃園榮民醫院","diaper":0}},{"type":"Feature","id":127,"geometry":{"type":"Point","coordinates":[121.321750000421,24.9969680002492]},"properties":{"FID":127,"county":10003,"city":1000301,"village":"三民里","number":"H010000963","name":"桃園市議會1樓左側女廁","address":"桃園市桃園區三民里三民路一段9號","administra":"桃園市議會","latitude":24.996968,"longitude":121.32175,"grade":"特優級","type2":"民眾洽公場所","type":"女廁所","exec_":"桃園市議會","diaper":0}},{"type":"Feature","id":128,"geometry":{"type":"Point","coordinates":[121.321750000421,24.9969680002492]},"properties":{"FID":128,"county":10003,"city":1000301,"village":"三民里","number":"H010000962","name":"桃園市議會1樓左側男廁","address":"桃園市桃園區三民里三民路一段9號","administra":"桃園市議會","latitude":24.996968,"longitude":121.32175,"grade":"特優級","type2":"民眾洽公場所","type":"男廁所","exec_":"桃園市議會","diaper":0}},{"type":"Feature","id":129,"geometry":{"type":"Point","coordinates":[121.321750000421,24.9969680002492]},"properties":{"FID":129,"county":10003,"city":1000301,"village":"三民里","number":"H010000961","name":"桃園市議會1樓右側無障礙廁所","address":"桃園市桃園區三民里三民路一段9號","administra":"桃園市議會","latitude":24.996968,"longitude":121.32175,"grade":"特優級","type2":"民眾洽公場所","type":"無障礙廁所","exec_":"桃園市議會","diaper":0}},{"type":"Feature","id":130,"geometry":{"type":"Point","coordinates":[121.321750000421,24.9969680002492]},"properties":{"FID":130,"county":10003,"city":1000301,"village":"三民里","number":"H010000960","name":"桃園市議會1樓右側女廁","address":"桃園市桃園區三民里三民路一段9號","administra":"桃園市議會","latitude":24.996968,"longitude":121.32175,"grade":"特優級","type2":"民眾洽公場所","type":"女廁所","exec_":"桃園市議會","diaper":0}},{"type":"Feature","id":131,"geometry":{"type":"Point","coordinates":[121.321750000421,24.9969680002492]},"properties":{"FID":131,"county":10003,"city":1000301,"village":"三民里","number":"H010000959","name":"桃園市議會1樓右側男廁","address":"桃園市桃園區三民里三民路一段9號","administra":"桃園市議會","latitude":24.996968,"longitude":121.32175,"grade":"特優級","type2":"民眾洽公場所","type":"男廁所","exec_":"桃園市議會","diaper":0}},{"type":"Feature","id":132,"geometry":{"type":"Point","coordinates":[121.320493400448,24.9995976000949]},"properties":{"FID":132,"county":10003,"city":1000301,"village":"三民里","number":"H010000954","name":"桃園區三民加油站女廁","address":"桃園市桃園區三民里三民路一段150號","administra":"台灣中油(股)公司","latitude":24.9995976,"longitude":121.3204934,"grade":"特優級","type2":"商業營業場所","type":"女廁所","exec_":"台灣中油(股)公司","diaper":0}},{"type":"Feature","id":133,"geometry":{"type":"Point","coordinates":[121.320951399829,24.9995853002469]},"properties":{"FID":133,"county":10003,"city":1000301,"village":"三民里","number":"H010000953","name":"桃園區三民加油站男廁","address":"桃園市桃園區三民里三民路一段150號","administra":"台灣中油(股)公司","latitude":24.9995853,"longitude":121.3209514,"grade":"特優級","type2":"商業營業場所","type":"男廁所","exec_":"台灣中油(股)公司","diaper":0}},{"type":"Feature","id":134,"geometry":{"type":"Point","coordinates":[121.325825900366,24.9960906197323]},"properties":{"FID":134,"county":10003,"city":1000301,"village":"三民里","number":"H010001437","name":"桃園假日花市混和廁","address":"桃園市桃園區三民里長壽路橋下1號","administra":"桃園市政府","latitude":24.99609062,"longitude":121.3258259,"grade":"特優級","type2":"商業營業場所","type":"混合廁所","exec_":"桃園假日花市管委會","diaper":0}},{"type":"Feature","id":135,"geometry":{"type":"Point","coordinates":[121.321592300062,25.0113786099611]},"properties":{"FID":135,"county":10003,"city":1000301,"village":"大有里","number":"H010001455","name":"大有梯田生態公園女廁","address":"桃園市桃園區大有里民有十街","administra":"桃園市政府養護工程處","latitude":25.01137861,"longitude":121.3215923,"grade":"特優級","type2":"公園","type":"女廁所","exec_":"桃園市政府養護工程處公園綠地科","diaper":0}},{"type":"Feature","id":136,"geometry":{"type":"Point","coordinates":[121.321566600042,25.0115983397595]},"properties":{"FID":136,"county":10003,"city":1000301,"village":"大有里","number":"H010001454","name":"大有梯田生態公園男廁","address":"桃園市桃園區大有里民有十街","administra":"桃園市政府養護工程處","latitude":25.01159834,"longitude":121.3215666,"grade":"特優級","type2":"公園","type":"男廁所","exec_":"桃園市政府養護工程處公園綠地科","diaper":0}},{"type":"Feature","id":137,"geometry":{"type":"Point","coordinates":[121.323223099817,24.9754478801769]},"properties":{"FID":137,"county":10003,"city":1000301,"village":"大林里","number":"H010000186","name":"桃園住都飯店A棟1樓男廁","address":"桃園市桃園區大林里桃鶯路398號","administra":"住都大飯店","latitude":24.97544788,"longitude":121.3232231,"grade":"特優級","type2":"觀光地區及風景區","type":"男廁所","exec_":"住都大飯店","diaper":0}},{"type":"Feature","id":138,"geometry":{"type":"Point","coordinates":[121.323187700324,24.9754965104299]},"properties":{"FID":138,"county":10003,"city":1000301,"village":"大林里","number":"H010000185","name":"桃園住都飯店C棟2樓男廁","address":"桃園市桃園區大林里桃鶯路398號","administra":"住都大飯店","latitude":24.97549651,"longitude":121.3231877,"grade":"特優級","type2":"觀光地區及風景區","type":"男廁所","exec_":"住都大飯店","diaper":0}},{"type":"Feature","id":139,"geometry":{"type":"Point","coordinates":[121.323177000487,24.9754867803648]},"properties":{"FID":139,"county":10003,"city":1000301,"village":"大林里","number":"H010000184","name":"桃園住都飯店C棟2樓女廁","address":"桃園市桃園區大林里桃鶯路398號","administra":"住都大飯店","latitude":24.97548678,"longitude":121.323177,"grade":"特優級","type2":"觀光地區及風景區","type":"女廁所","exec_":"住都大飯店","diaper":0}},{"type":"Feature","id":140,"geometry":{"type":"Point","coordinates":[121.323201699781,24.9754965098308]},"properties":{"FID":140,"county":10003,"city":1000301,"village":"大林里","number":"H010000182","name":"桃園住都飯店D棟2樓男女混合廁所","address":"桃園市桃園區大林里桃鶯路398號","administra":"住都大飯店","latitude":24.97549651,"longitude":121.3232017,"grade":"特優級","type2":"觀光地區及風景區","type":"混合廁所","exec_":"住都大飯店","diaper":0}},{"type":"Feature","id":141,"geometry":{"type":"Point","coordinates":[121.323137300388,24.9754770599825]},"properties":{"FID":141,"county":10003,"city":1000301,"village":"大林里","number":"H010000181","name":"桃園住都飯店A棟2樓女廁","address":"桃園市桃園區大林里桃鶯路398號","administra":"住都大飯店","latitude":24.97547706,"longitude":121.3231373,"grade":"特優級","type2":"觀光地區及風景區","type":"女廁所","exec_":"住都大飯店","diaper":0}},{"type":"Feature","id":142,"geometry":{"type":"Point","coordinates":[121.323228500218,24.9754965103278]},"properties":{"FID":142,"county":10003,"city":1000301,"village":"大林里","number":"H010000180","name":"桃園住都飯店A棟2樓男廁","address":"桃園市桃園區大林里桃鶯路398號","administra":"住都大飯店","latitude":24.97549651,"longitude":121.3232285,"grade":"特優級","type2":"觀光地區及風景區","type":"男廁所","exec_":"住都大飯店","diaper":0}},{"type":"Feature","id":143,"geometry":{"type":"Point","coordinates":[121.32324459982,24.9754867798592]},"properties":{"FID":143,"county":10003,"city":1000301,"village":"大林里","number":"H010000179","name":"桃園住都飯店3樓中餐聽女廁","address":"桃園市桃園區大林里桃鶯路398號","administra":"住都大飯店","latitude":24.97548678,"longitude":121.3232446,"grade":"特優級","type2":"觀光地區及風景區","type":"女廁所","exec_":"住都大飯店","diaper":1}},{"type":"Feature","id":144,"geometry":{"type":"Point","coordinates":[121.323233799616,24.9754867798359]},"properties":{"FID":144,"county":10003,"city":1000301,"village":"大林里","number":"H010000178","name":"桃園住都飯店3樓中餐聽男廁","address":"桃園市桃園區大林里桃鶯路398號","administra":"住都大飯店","latitude":24.97548678,"longitude":121.3232338,"grade":"特優級","type2":"觀光地區及風景區","type":"男廁所","exec_":"住都大飯店","diaper":0}},{"type":"Feature","id":145,"geometry":{"type":"Point","coordinates":[121.323223100128,24.9754673298846]},"properties":{"FID":145,"county":10003,"city":1000301,"village":"大林里","number":"H010000177","name":"桃園住都飯店D棟1樓女廁","address":"桃園市桃園區大林里桃鶯路398號","administra":"住都大飯店","latitude":24.97546733,"longitude":121.3232231,"grade":"特優級","type2":"觀光地區及風景區","type":"女廁所","exec_":"住都大飯店","diaper":1}},{"type":"Feature","id":146,"geometry":{"type":"Point","coordinates":[121.323174800475,24.9754916495992]},"properties":{"FID":146,"county":10003,"city":1000301,"village":"大林里","number":"H010000176","name":"桃園住都飯店D棟1樓男廁","address":"桃園市桃園區大林里桃鶯路398號","administra":"住都大飯店","latitude":24.97549165,"longitude":121.3231748,"grade":"特優級","type2":"觀光地區及風景區","type":"男廁所","exec_":"住都大飯店","diaper":0}},{"type":"Feature","id":147,"geometry":{"type":"Point","coordinates":[121.325255200144,24.9764748998304]},"properties":{"FID":147,"county":10003,"city":1000301,"village":"大林里","number":"H010000175","name":"桃園住都飯店C棟1樓女廁","address":"桃園市桃園區大林里桃鶯路398號","administra":"住都大飯店","latitude":24.9764749,"longitude":121.3252552,"grade":"特優級","type2":"觀光地區及風景區","type":"女廁所","exec_":"住都大飯店","diaper":1}},{"type":"Feature","id":148,"geometry":{"type":"Point","coordinates":[121.323201699801,24.9754673303025]},"properties":{"FID":148,"county":10003,"city":1000301,"village":"大林里","number":"H010000174","name":"桃園住都飯店C棟1樓男廁","address":"桃園市桃園區大林里桃鶯路398號","administra":"住都大飯店","latitude":24.97546733,"longitude":121.3232017,"grade":"特優級","type2":"觀光地區及風景區","type":"男廁所","exec_":"住都大飯店","diaper":0}},{"type":"Feature","id":149,"geometry":{"type":"Point","coordinates":[121.323185600374,24.975472199919]},"properties":{"FID":149,"county":10003,"city":1000301,"village":"大林里","number":"H010000173","name":"桃園住都飯店B棟1樓女廁","address":"桃園市桃園區大林里桃鶯路398號","administra":"住都大飯店","latitude":24.9754722,"longitude":121.3231856,"grade":"特優級","type2":"觀光地區及風景區","type":"女廁所","exec_":"住都大飯店","diaper":1}},{"type":"Feature","id":150,"geometry":{"type":"Point","coordinates":[121.323201700156,24.9754576104131]},"properties":{"FID":150,"county":10003,"city":1000301,"village":"大林里","number":"H010000172","name":"桃園住都飯店B棟1樓男廁","address":"桃園市桃園區大林里桃鶯路398號","administra":"住都大飯店","latitude":24.97545761,"longitude":121.3232017,"grade":"特優級","type2":"觀光地區及風景區","type":"男廁所","exec_":"住都大飯店","diaper":0}},{"type":"Feature","id":151,"geometry":{"type":"Point","coordinates":[121.32320170011,24.9754867800103]},"properties":{"FID":151,"county":10003,"city":1000301,"village":"大林里","number":"H010000171","name":"桃園住都飯店A棟1樓女廁","address":"桃園市桃園區大林里桃鶯路398號","administra":"住都大飯店","latitude":24.97548678,"longitude":121.3232017,"grade":"特優級","type2":"觀光地區及風景區","type":"女廁所","exec_":"住都大飯店","diaper":0}},{"type":"Feature","id":152,"geometry":{"type":"Point","coordinates":[121.323433399605,24.9751739998738]},"properties":{"FID":152,"county":10003,"city":1000301,"village":"大林里","number":"H010000164","name":"桃園區車容坊桃鶯加油站無障礙廁所","address":"桃園市桃園區大林里桃鶯路402號","administra":"台灣中油(股)公司","latitude":24.975174,"longitude":121.3234334,"grade":"特優級","type2":"商業營業場所","type":"無障礙廁所","exec_":"台灣中油(股)公司","diaper":0}},{"type":"Feature","id":153,"geometry":{"type":"Point","coordinates":[121.323474500122,24.9751545403148]},"properties":{"FID":153,"county":10003,"city":1000301,"village":"大林里","number":"H010000163","name":"桃園區車容坊桃鶯加油站女廁","address":"桃園市桃園區大林里桃鶯路402號","administra":"台灣中油(股)公司","latitude":24.97515454,"longitude":121.3234745,"grade":"特優級","type2":"商業營業場所","type":"女廁所","exec_":"台灣中油(股)公司","diaper":0}},{"type":"Feature","id":154,"geometry":{"type":"Point","coordinates":[121.323422699604,24.9751399601727]},"properties":{"FID":154,"county":10003,"city":1000301,"village":"大林里","number":"H010000162","name":"桃園區車容坊桃鶯加油站男廁","address":"桃園市桃園區大林里桃鶯路402號","administra":"台灣中油(股)公司","latitude":24.97513996,"longitude":121.3234227,"grade":"特優級","type2":"商業營業場所","type":"男廁所","exec_":"台灣中油(股)公司","diaper":0}},{"type":"Feature","id":155,"geometry":{"type":"Point","coordinates":[121.323902999983,24.975450000229]},"properties":{"FID":155,"county":10003,"city":1000301,"village":"大林里","number":"H010000158","name":"祥儀機器人夢工廠4F無障礙廁所","address":"桃園市桃園區大林里桃鶯路461號","administra":"祥儀機器人夢工廠","latitude":24.97545,"longitude":121.323903,"grade":"特優級","type2":"觀光地區及風景區","type":"無障礙廁所","exec_":"祥儀機器人夢工廠","diaper":0}},{"type":"Feature","id":156,"geometry":{"type":"Point","coordinates":[121.324167300454,24.9767219302669]},"properties":{"FID":156,"county":10003,"city":1000301,"village":"大林里","number":"H010000157","name":"祥儀機器人夢工廠4F女廁","address":"桃園市桃園區大林里桃鶯路461號","administra":"祥儀機器人夢工廠","latitude":24.97672193,"longitude":121.3241673,"grade":"特優級","type2":"觀光地區及風景區","type":"女廁所","exec_":"祥儀機器人夢工廠","diaper":0}},{"type":"Feature","id":157,"geometry":{"type":"Point","coordinates":[121.323902999983,24.975450000229]},"properties":{"FID":157,"county":10003,"city":1000301,"village":"大林里","number":"H010000156","name":"祥儀機器人夢工廠4F男廁","address":"桃園市桃園區大林里桃鶯路461號","administra":"祥儀機器人夢工廠","latitude":24.97545,"longitude":121.323903,"grade":"特優級","type2":"觀光地區及風景區","type":"男廁所","exec_":"祥儀機器人夢工廠","diaper":0}},{"type":"Feature","id":158,"geometry":{"type":"Point","coordinates":[121.323902999983,24.975450000229]},"properties":{"FID":158,"county":10003,"city":1000301,"village":"大林里","number":"H010000155","name":"祥儀機器人夢工廠1F女廁","address":"桃園市桃園區大林里桃鶯路461號","administra":"祥儀機器人夢工廠","latitude":24.97545,"longitude":121.323903,"grade":"特優級","type2":"觀光地區及風景區","type":"女廁所","exec_":"祥儀機器人夢工廠","diaper":0}},{"type":"Feature","id":159,"geometry":{"type":"Point","coordinates":[121.323902999983,24.975450000229]},"properties":{"FID":159,"county":10003,"city":1000301,"village":"大林里","number":"H010000154","name":"祥儀機器人夢工廠1F男廁","address":"桃園市桃園區大林里桃鶯路461號","administra":"祥儀機器人夢工廠","latitude":24.97545,"longitude":121.323903,"grade":"特優級","type2":"觀光地區及風景區","type":"男廁所","exec_":"祥儀機器人夢工廠","diaper":0}},{"type":"Feature","id":160,"geometry":{"type":"Point","coordinates":[121.323909799598,24.9756326698562]},"properties":{"FID":160,"county":10003,"city":1000301,"village":"大林里","number":"H010000153","name":"祥儀機器人夢工廠1F售票中心男女廁","address":"桃園市桃園區大林里桃鶯路461號","administra":"祥儀機器人夢工廠","latitude":24.97563267,"longitude":121.3239098,"grade":"特優級","type2":"觀光地區及風景區","type":"混合廁所","exec_":"祥儀機器人夢工廠","diaper":0}},{"type":"Feature","id":161,"geometry":{"type":"Point","coordinates":[121.320519499889,24.9774221602346]},"properties":{"FID":161,"county":10003,"city":1000301,"village":"大林里","number":"H010000167","name":"大林公園無障礙廁所","address":"桃園市桃園區大林里大原路","administra":"桃園市桃園區公所","latitude":24.97742216,"longitude":121.3205195,"grade":"特優級","type2":"公園","type":"無障礙廁所","exec_":"桃園市桃園區公所公燈管理課","diaper":0}},{"type":"Feature","id":162,"geometry":{"type":"Point","coordinates":[121.320476000471,24.9772380003489]},"properties":{"FID":162,"county":10003,"city":1000301,"village":"大林里","number":"H010000166","name":"大林公園女廁","address":"桃園市桃園區大林里大原路","administra":"桃園市桃園區公所","latitude":24.977238,"longitude":121.320476,"grade":"特優級","type2":"公園","type":"女廁所","exec_":"桃園市桃園區公所公燈管理課","diaper":0}},{"type":"Feature","id":163,"geometry":{"type":"Point","coordinates":[121.320476000471,24.9772380003489]},"properties":{"FID":163,"county":10003,"city":1000301,"village":"大林里","number":"H010000165","name":"大林公園男廁","address":"桃園市桃園區大林里大原路","administra":"桃園市桃園區公所","latitude":24.977238,"longitude":121.320476,"grade":"特優級","type2":"公園","type":"男廁所","exec_":"桃園市桃園區公所公燈管理課","diaper":0}},{"type":"Feature","id":164,"geometry":{"type":"Point","coordinates":[121.320845999878,24.9779473798788]},"properties":{"FID":164,"county":10003,"city":1000301,"village":"大林里","number":"H010000198","name":"桃園市立圖書館大林分館2F女廁","address":"桃園市桃園區大林里樹仁二街37號","administra":"桃園市立圖書館大林分館","latitude":24.97794738,"longitude":121.320846,"grade":"特優級","type2":"文化育樂活動場所","type":"女廁所","exec_":"桃園市立圖書館大林分館","diaper":0}},{"type":"Feature","id":165,"geometry":{"type":"Point","coordinates":[121.320799499635,24.9780057298996]},"properties":{"FID":165,"county":10003,"city":1000301,"village":"大林里","number":"H010000197","name":"桃園市立圖書館大林分館2F男廁","address":"桃園市桃園區大林里樹仁二街37號","administra":"桃園市立圖書館大林分館","latitude":24.97800573,"longitude":121.3207995,"grade":"特優級","type2":"文化育樂活動場所","type":"男廁所","exec_":"桃園市立圖書館大林分館","diaper":0}},{"type":"Feature","id":166,"geometry":{"type":"Point","coordinates":[121.320987200235,24.9779441403679]},"properties":{"FID":166,"county":10003,"city":1000301,"village":"大林里","number":"H010000196","name":"桃園市立圖書館大林分館1F無障礙廁所","address":"桃園市桃園區大林里樹仁二街37號","administra":"桃園市立圖書館大林分館","latitude":24.97794414,"longitude":121.3209872,"grade":"特優級","type2":"文化育樂活動場所","type":"無障礙廁所","exec_":"桃園市立圖書館大林分館","diaper":0}},{"type":"Feature","id":167,"geometry":{"type":"Point","coordinates":[121.320947900216,24.977905239927]},"properties":{"FID":167,"county":10003,"city":1000301,"village":"大林里","number":"H010000195","name":"桃園市立圖書館大林分館1F女廁","address":"桃園市桃園區大林里樹仁二街37號","administra":"桃園市立圖書館大林分館","latitude":24.97790524,"longitude":121.3209479,"grade":"特優級","type2":"文化育樂活動場所","type":"女廁所","exec_":"桃園市立圖書館大林分館","diaper":1}},{"type":"Feature","id":168,"geometry":{"type":"Point","coordinates":[121.32076729984,24.9779619704171]},"properties":{"FID":168,"county":10003,"city":1000301,"village":"大林里","number":"H010000199","name":"桃園市立圖書館大林分館1F男廁","address":"桃園市桃園區大林里樹仁二街37號","administra":"桃園市立圖書館大林分館","latitude":24.97796197,"longitude":121.3207673,"grade":"特優級","type2":"文化育樂活動場所","type":"男廁所","exec_":"桃園市立圖書館大林分館","diaper":0}},{"type":"Feature","id":169,"geometry":{"type":"Point","coordinates":[121.313719700286,25.0078868996031]},"properties":{"FID":169,"county":10003,"city":1000301,"village":"大業里","number":"H010000981","name":"桃園區河濱綠地男廁","address":"桃園市桃園區大業里春日路610巷","administra":"桃園區公所公燈管理課","latitude":25.0078869,"longitude":121.3137197,"grade":"特優級","type2":"其他","type":"男廁所","exec_":"桃園區公所公燈管理課","diaper":0}},{"type":"Feature","id":170,"geometry":{"type":"Point","coordinates":[121.314065000405,25.0078089997743]},"properties":{"FID":170,"county":10003,"city":1000301,"village":"大業里","number":"H010000980","name":"桃園區河濱綠地女廁","address":"桃園市桃園區大業里春日路610巷","administra":"桃園區公所公燈管理課","latitude":25.007809,"longitude":121.314065,"grade":"特優級","type2":"其他","type":"女廁所","exec_":"桃園區公所公燈管理課","diaper":0}},{"type":"Feature","id":171,"geometry":{"type":"Point","coordinates":[121.311500599846,25.0087544396205]},"properties":{"FID":171,"county":10003,"city":1000301,"village":"大興里","number":"H010000977","name":"JC PARK食尚廣場B2樓女廁","address":"桃園市桃園區大興里春日路618號","administra":"JC PARK食尚廣場桃園春日館","latitude":25.00875444,"longitude":121.3115006,"grade":"特優級","type2":"商業營業場所","type":"女廁所","exec_":"JC PARK食尚廣場桃園春日館","diaper":0}},{"type":"Feature","id":172,"geometry":{"type":"Point","coordinates":[121.311487200392,25.0087581403912]},"properties":{"FID":172,"county":10003,"city":1000301,"village":"大興里","number":"H010000976","name":"JC PARK食尚廣場B2樓男廁","address":"桃園市桃園區大興里春日路618號","administra":"JC PARK食尚廣場桃園春日館","latitude":25.00875814,"longitude":121.3114872,"grade":"特優級","type2":"商業營業場所","type":"男廁所","exec_":"JC PARK食尚廣場桃園春日館","diaper":0}},{"type":"Feature","id":173,"geometry":{"type":"Point","coordinates":[121.311562899604,25.0087974498831]},"properties":{"FID":173,"county":10003,"city":1000301,"village":"大興里","number":"H010000975","name":"JC PARK食尚廣場B1無障礙廁所","address":"桃園市桃園區大興里春日路618號","administra":"JC PARK食尚廣場桃園春日館","latitude":25.00879745,"longitude":121.3115629,"grade":"特優級","type2":"商業營業場所","type":"無障礙廁所","exec_":"JC PARK食尚廣場桃園春日館","diaper":1}},{"type":"Feature","id":174,"geometry":{"type":"Point","coordinates":[121.311535100401,25.0087939997249]},"properties":{"FID":174,"county":10003,"city":1000301,"village":"大興里","number":"H010000974","name":"JC PARK食尚廣場B1女廁","address":"桃園市桃園區大興里春日路618號","administra":"JC PARK食尚廣場桃園春日館","latitude":25.008794,"longitude":121.3115351,"grade":"特優級","type2":"商業營業場所","type":"女廁所","exec_":"JC PARK食尚廣場桃園春日館","diaper":0}},{"type":"Feature","id":175,"geometry":{"type":"Point","coordinates":[121.311568600239,25.0088252802709]},"properties":{"FID":175,"county":10003,"city":1000301,"village":"大興里","number":"H010000973","name":"JC PARK食尚廣場B1男廁","address":"桃園市桃園區大興里春日路618號","administra":"JC PARK食尚廣場桃園春日館","latitude":25.00882528,"longitude":121.3115686,"grade":"特優級","type2":"商業營業場所","type":"男廁所","exec_":"JC PARK食尚廣場桃園春日館","diaper":0}},{"type":"Feature","id":176,"geometry":{"type":"Point","coordinates":[121.311758900442,25.0088598697018]},"properties":{"FID":176,"county":10003,"city":1000301,"village":"大興里","number":"H010000972","name":"JC PARK食尚廣場2樓親子廁","address":"桃園市桃園區大興里春日路618號","administra":"JC PARK食尚廣場桃園春日館","latitude":25.00885987,"longitude":121.3117589,"grade":"特優級","type2":"商業營業場所","type":"親子廁所","exec_":"JC PARK食尚廣場桃園春日館","diaper":1}},{"type":"Feature","id":177,"geometry":{"type":"Point","coordinates":[121.311766099716,25.0088467202608]},"properties":{"FID":177,"county":10003,"city":1000301,"village":"大興里","number":"H010000971","name":"JC PARK食尚廣場2樓女廁","address":"桃園市桃園區大興里春日路618號","administra":"JC PARK食尚廣場桃園春日館","latitude":25.00884672,"longitude":121.3117661,"grade":"特優級","type2":"商業營業場所","type":"女廁所","exec_":"JC PARK食尚廣場桃園春日館","diaper":0}},{"type":"Feature","id":178,"geometry":{"type":"Point","coordinates":[121.311595999649,25.0087888596426]},"properties":{"FID":178,"county":10003,"city":1000301,"village":"大興里","number":"H010000970","name":"JC PARK食尚廣場2樓男廁","address":"桃園市桃園區大興里春日路618號","administra":"JC PARK食尚廣場桃園春日館","latitude":25.00878886,"longitude":121.311596,"grade":"特優級","type2":"商業營業場所","type":"男廁所","exec_":"JC PARK食尚廣場桃園春日館","diaper":0}},{"type":"Feature","id":179,"geometry":{"type":"Point","coordinates":[121.320047999759,24.9816459999017]},"properties":{"FID":179,"county":10003,"city":1000301,"village":"大樹里","number":"H010000191","name":"利百代彩筆文創館-義百代餐館2樓女廁","address":"桃園市桃園區大樹里大誠路2號","administra":"利百代彩筆文創館義百代餐館","latitude":24.981646,"longitude":121.320048,"grade":"特優級","type2":"觀光地區及風景區","type":"女廁所","exec_":"利百代彩筆文創館義百代餐館","diaper":0}},{"type":"Feature","id":180,"geometry":{"type":"Point","coordinates":[121.320047999759,24.9816459999017]},"properties":{"FID":180,"county":10003,"city":1000301,"village":"大樹里","number":"H010000190","name":"利百代彩筆文創館-義百代餐館2樓男廁","address":"桃園市桃園區大樹里大誠路2號","administra":"利百代彩筆文創館義百代餐館","latitude":24.981646,"longitude":121.320048,"grade":"特優級","type2":"觀光地區及風景區","type":"男廁所","exec_":"利百代彩筆文創館義百代餐館","diaper":0}},{"type":"Feature","id":181,"geometry":{"type":"Point","coordinates":[121.320047999759,24.9816459999017]},"properties":{"FID":181,"county":10003,"city":1000301,"village":"大樹里","number":"H010000189","name":"利百代彩筆文創館-義百代餐館1樓無障礙廁所","address":"桃園市桃園區大樹里大誠路2號","administra":"利百代彩筆文創館義百代餐館","latitude":24.981646,"longitude":121.320048,"grade":"特優級","type2":"觀光地區及風景區","type":"無障礙廁所","exec_":"利百代彩筆文創館義百代餐館","diaper":1}},{"type":"Feature","id":182,"geometry":{"type":"Point","coordinates":[121.320047999759,24.9816459999017]},"properties":{"FID":182,"county":10003,"city":1000301,"village":"大樹里","number":"H010000188","name":"利百代彩筆文創館-義百代餐館1樓女廁","address":"桃園市桃園區大樹里大誠路2號","administra":"利百代彩筆文創館義百代餐館","latitude":24.981646,"longitude":121.320048,"grade":"特優級","type2":"觀光地區及風景區","type":"女廁所","exec_":"利百代彩筆文創館義百代餐館","diaper":0}},{"type":"Feature","id":183,"geometry":{"type":"Point","coordinates":[121.320047999759,24.9816459999017]},"properties":{"FID":183,"county":10003,"city":1000301,"village":"大樹里","number":"H010000187","name":"利百代彩筆文創館-義百代餐館1樓男廁","address":"桃園市桃園區大樹里大誠路2號","administra":"利百代彩筆文創館義百代餐館","latitude":24.981646,"longitude":121.320048,"grade":"特優級","type2":"觀光地區及風景區","type":"男廁所","exec_":"利百代彩筆文創館義百代餐館","diaper":0}},{"type":"Feature","id":184,"geometry":{"type":"Point","coordinates":[121.310394000198,25.0103690000644]},"properties":{"FID":184,"county":10003,"city":1000301,"village":"大興里","number":"H010000967","name":"桃園區春日加油站無障礙廁所","address":"桃園市桃園區大興里春日路971號","administra":"台灣中油股份有限公司直營店-春日路站","latitude":25.010369,"longitude":121.310394,"grade":"特優級","type2":"商業營業場所","type":"無障礙廁所","exec_":"台灣中油股份有限公司直營店-春日路站","diaper":0}},{"type":"Feature","id":185,"geometry":{"type":"Point","coordinates":[121.310458999997,25.0104600004036]},"properties":{"FID":185,"county":10003,"city":1000301,"village":"大興里","number":"H010000966","name":"桃園區春日加油站女廁","address":"桃園市桃園區大興里春日路971號","administra":"台灣中油股份有限公司直營店-春日路站","latitude":25.01046,"longitude":121.310459,"grade":"特優級","type2":"商業營業場所","type":"女廁所","exec_":"台灣中油股份有限公司直營店-春日路站","diaper":0}},{"type":"Feature","id":186,"geometry":{"type":"Point","coordinates":[121.310458999997,25.0104600004036]},"properties":{"FID":186,"county":10003,"city":1000301,"village":"大興里","number":"H010000965","name":"桃園區春日加油站男廁","address":"桃園市桃園區大興里春日路971號","administra":"台灣中油股份有限公司直營店-春日路站","latitude":25.01046,"longitude":121.310459,"grade":"特優級","type2":"商業營業場所","type":"男廁所","exec_":"台灣中油股份有限公司直營店-春日路站","diaper":0}},{"type":"Feature","id":187,"geometry":{"type":"Point","coordinates":[121.291745999509,24.9864580004265]},"properties":{"FID":187,"county":10003,"city":1000301,"village":"中山里","number":"H010000413","name":"桃園市立圖書館中路分館3F女廁","address":"桃園市桃園區中山里宏昌七街166號","administra":"桃園市立圖書館中路分館","latitude":24.986458,"longitude":121.291746,"grade":"特優級","type2":"文化育樂活動場所","type":"女廁所","exec_":"桃園市立圖書館中路分館","diaper":0}},{"type":"Feature","id":188,"geometry":{"type":"Point","coordinates":[121.291745999509,24.9864580004265]},"properties":{"FID":188,"county":10003,"city":1000301,"village":"中山里","number":"H010000412","name":"桃園市立圖書館中路分館3F男廁","address":"桃園市桃園區中山里宏昌七街166號","administra":"桃園市立圖書館中路分館","latitude":24.986458,"longitude":121.291746,"grade":"特優級","type2":"文化育樂活動場所","type":"男廁所","exec_":"桃園市立圖書館中路分館","diaper":0}},{"type":"Feature","id":189,"geometry":{"type":"Point","coordinates":[121.291745999509,24.9864580004265]},"properties":{"FID":189,"county":10003,"city":1000301,"village":"中山里","number":"H010000411","name":"桃園市立圖書館中路分館2F女廁","address":"桃園市桃園區中山里宏昌七街166號","administra":"桃園市立圖書館中路分館","latitude":24.986458,"longitude":121.291746,"grade":"特優級","type2":"文化育樂活動場所","type":"女廁所","exec_":"桃園市立圖書館中路分館","diaper":0}},{"type":"Feature","id":190,"geometry":{"type":"Point","coordinates":[121.291701999825,24.9865090000989]},"properties":{"FID":190,"county":10003,"city":1000301,"village":"中山里","number":"H010000410","name":"桃園市立圖書館中路分館2F男廁","address":"桃園市桃園區中山里宏昌七街166號","administra":"桃園市立圖書館中路分館","latitude":24.986509,"longitude":121.291702,"grade":"特優級","type2":"文化育樂活動場所","type":"男廁所","exec_":"桃園市立圖書館中路分館","diaper":0}},{"type":"Feature","id":191,"geometry":{"type":"Point","coordinates":[121.291745999509,24.9864580004265]},"properties":{"FID":191,"county":10003,"city":1000301,"village":"中山里","number":"H010000409","name":"桃園市立圖書館中路分館1F女廁","address":"桃園市桃園區中山里宏昌七街166號","administra":"桃園市立圖書館中路分館","latitude":24.986458,"longitude":121.291746,"grade":"特優級","type2":"文化育樂活動場所","type":"女廁所","exec_":"桃園市立圖書館中路分館","diaper":0}},{"type":"Feature","id":192,"geometry":{"type":"Point","coordinates":[121.291745999509,24.9864580004265]},"properties":{"FID":192,"county":10003,"city":1000301,"village":"中山里","number":"H010000408","name":"桃園市立圖書館中路分館1F男廁","address":"桃園市桃園區中山里宏昌七街166號","administra":"桃園市立圖書館中路分館","latitude":24.986458,"longitude":121.291746,"grade":"特優級","type2":"文化育樂活動場所","type":"男廁所","exec_":"桃園市立圖書館中路分館","diaper":0}},{"type":"Feature","id":193,"geometry":{"type":"Point","coordinates":[121.291649500079,24.9857042802892]},"properties":{"FID":193,"county":10003,"city":1000301,"village":"中山里","number":"H010000401","name":"桃園區仁愛公園無障礙廁所","address":"桃園市桃園區中山里宏昌八街","administra":"桃園市桃園區公所","latitude":24.98570428,"longitude":121.2916495,"grade":"特優級","type2":"公園","type":"無障礙廁所","exec_":"桃園市桃園區公所公燈管理課","diaper":1}},{"type":"Feature","id":194,"geometry":{"type":"Point","coordinates":[121.291649500079,24.9857042802892]},"properties":{"FID":194,"county":10003,"city":1000301,"village":"中山里","number":"H010000400","name":"仁愛公園女廁","address":"桃園市桃園區中山里宏昌八街","administra":"桃園市桃園區公所","latitude":24.98570428,"longitude":121.2916495,"grade":"特優級","type2":"公園","type":"女廁所","exec_":"桃園市桃園區公所公燈管理課","diaper":0}},{"type":"Feature","id":195,"geometry":{"type":"Point","coordinates":[121.291646799917,24.9857030703682]},"properties":{"FID":195,"county":10003,"city":1000301,"village":"中山里","number":"H010000399","name":"仁愛公園男廁","address":"桃園市桃園區中山里宏昌八街","administra":"桃園市桃園區公所","latitude":24.98570307,"longitude":121.2916468,"grade":"特優級","type2":"公園","type":"男廁所","exec_":"桃園市桃園區公所公燈管理課","diaper":0}},{"type":"Feature","id":196,"geometry":{"type":"Point","coordinates":[121.292005999864,24.9887339999096]},"properties":{"FID":196,"county":10003,"city":1000301,"village":"中山里","number":"H010000421","name":"桃園市立游泳池1F更衣間女廁(室外池)","address":"桃園市桃園區中山里中平路34號","administra":"桃園市政府體育局","latitude":24.988734,"longitude":121.292006,"grade":"特優級","type2":"文化育樂活動場所","type":"女廁所","exec_":"桃園市政府體育局","diaper":0}},{"type":"Feature","id":197,"geometry":{"type":"Point","coordinates":[121.302914399614,24.9877108999927]},"properties":{"FID":197,"county":10003,"city":1000301,"village":"中山里","number":"H010000420","name":"桃園市立游泳池1F更衣間男廁(室外池)","address":"桃園市桃園區中山里中平路34號","administra":"桃園市政府體育局","latitude":24.9877109,"longitude":121.3029144,"grade":"特優級","type2":"文化育樂活動場所","type":"男廁所","exec_":"桃園市政府體育局","diaper":0}},{"type":"Feature","id":198,"geometry":{"type":"Point","coordinates":[121.292006000246,24.9887350002467]},"properties":{"FID":198,"county":10003,"city":1000301,"village":"中山里","number":"H010000419","name":"桃園市立游泳池1F更衣間男廁","address":"桃園市桃園區中山里中平路34號","administra":"桃園市政府體育局","latitude":24.988735,"longitude":121.292006,"grade":"特優級","type2":"文化育樂活動場所","type":"男廁所","exec_":"桃園市政府體育局","diaper":0}},{"type":"Feature","id":199,"geometry":{"type":"Point","coordinates":[121.30292340027,24.9877109999427]},"properties":{"FID":199,"county":10003,"city":1000301,"village":"中山里","number":"H010000418","name":"桃園市立游泳池1F更衣間女廁","address":"桃園市桃園區中山里中平路34號","administra":"桃園市政府體育局","latitude":24.987711,"longitude":121.3029234,"grade":"特優級","type2":"文化育樂活動場所","type":"女廁所","exec_":"桃園市政府體育局","diaper":0}},{"type":"Feature","id":200,"geometry":{"type":"Point","coordinates":[121.302915600441,24.9877109995684]},"properties":{"FID":200,"county":10003,"city":1000301,"village":"中山里","number":"H010000417","name":"桃園市立游泳池1F女廁","address":"桃園市桃園區中山里中平路34號","administra":"桃園市政府體育局","latitude":24.987711,"longitude":121.3029156,"grade":"特優級","type2":"文化育樂活動場所","type":"女廁所","exec_":"桃園市政府體育局","diaper":1}},{"type":"Feature","id":201,"geometry":{"type":"Point","coordinates":[121.302917900152,24.987708000195]},"properties":{"FID":201,"county":10003,"city":1000301,"village":"中山里","number":"H010000416","name":"桃園市立游泳池1F男廁","address":"桃園市桃園區中山里中平路34號","administra":"桃園市政府體育局","latitude":24.987708,"longitude":121.3029179,"grade":"特優級","type2":"文化育樂活動場所","type":"男廁所","exec_":"桃園市政府體育局","diaper":1}},{"type":"Feature","id":202,"geometry":{"type":"Point","coordinates":[121.296250799744,24.9976493497565]},"properties":{"FID":202,"county":10003,"city":1000301,"village":"中正里","number":"H010000541","name":"向陽公園親子廁所","address":"桃園市桃園區中正里力行路","administra":"桃園市政府養護工程處","latitude":24.99764935,"longitude":121.2962508,"grade":"特優級","type2":"公園","type":"親子廁所","exec_":"桃園市政府養護工程處公園綠地科","diaper":1}},{"type":"Feature","id":203,"geometry":{"type":"Point","coordinates":[121.296250799686,24.9979216200303]},"properties":{"FID":203,"county":10003,"city":1000301,"village":"中正里","number":"H010000540","name":"向陽公園女廁","address":"桃園市桃園區中正里力行路","administra":"桃園市政府養護工程處","latitude":24.99792162,"longitude":121.2962508,"grade":"特優級","type2":"公園","type":"女廁所","exec_":"桃園市政府養護工程處公園綠地科","diaper":1}},{"type":"Feature","id":204,"geometry":{"type":"Point","coordinates":[121.296127399528,24.9976007297153]},"properties":{"FID":204,"county":10003,"city":1000301,"village":"中正里","number":"H010000539","name":"向陽公園男廁","address":"桃園市桃園區中正里力行路","administra":"桃園市政府養護工程處","latitude":24.99760073,"longitude":121.2961274,"grade":"特優級","type2":"公園","type":"男廁所","exec_":"桃園市政府養護工程處公園綠地科","diaper":0}},{"type":"Feature","id":205,"geometry":{"type":"Point","coordinates":[121.298150999785,24.9950590004263]},"properties":{"FID":205,"county":10003,"city":1000301,"village":"中正里","number":"H010001435","name":"廈門街立體停車場7樓無障礙廁所","address":"桃園市桃園區中正里文中東路165號","administra":"桃園市政府交通局","latitude":24.995059,"longitude":121.298151,"grade":"特優級","type2":"交通","type":"無障礙廁所","exec_":"桃園市政府交通局","diaper":0}},{"type":"Feature","id":206,"geometry":{"type":"Point","coordinates":[121.298150999785,24.9950590004263]},"properties":{"FID":206,"county":10003,"city":1000301,"village":"中正里","number":"H010001434","name":"廈門街立體停車場7樓女廁所","address":"桃園市桃園區中正里文中東路165號","administra":"桃園市政府交通局","latitude":24.995059,"longitude":121.298151,"grade":"特優級","type2":"交通","type":"女廁所","exec_":"桃園市政府交通局","diaper":0}},{"type":"Feature","id":207,"geometry":{"type":"Point","coordinates":[121.298150999785,24.9950590004263]},"properties":{"FID":207,"county":10003,"city":1000301,"village":"中正里","number":"H010001433","name":"廈門街立體停車場7樓男廁所","address":"桃園市桃園區中正里文中東路165號","administra":"桃園市政府交通局","latitude":24.995059,"longitude":121.298151,"grade":"特優級","type2":"交通","type":"男廁所","exec_":"桃園市政府交通局","diaper":0}},{"type":"Feature","id":208,"geometry":{"type":"Point","coordinates":[121.298150999785,24.9950590004263]},"properties":{"FID":208,"county":10003,"city":1000301,"village":"中正里","number":"H010001432","name":"廈門街立體停車場6樓女廁所","address":"桃園市桃園區中正里文中東路165號","administra":"桃園市政府交通局","latitude":24.995059,"longitude":121.298151,"grade":"特優級","type2":"交通","type":"女廁所","exec_":"桃園市政府交通局","diaper":0}},{"type":"Feature","id":209,"geometry":{"type":"Point","coordinates":[121.298150999785,24.9950590004263]},"properties":{"FID":209,"county":10003,"city":1000301,"village":"中正里","number":"H010001431","name":"廈門街立體停車場6樓男廁所","address":"桃園市桃園區中正里文中東路165號","administra":"桃園市政府交通局","latitude":24.995059,"longitude":121.298151,"grade":"特優級","type2":"交通","type":"男廁所","exec_":"桃園市政府交通局","diaper":0}},{"type":"Feature","id":210,"geometry":{"type":"Point","coordinates":[121.298150999785,24.9950590004263]},"properties":{"FID":210,"county":10003,"city":1000301,"village":"中正里","number":"H010001430","name":"廈門街立體停車場6樓無障礙廁所","address":"桃園市桃園區中正里文中東路165號","administra":"桃園市政府交通局","latitude":24.995059,"longitude":121.298151,"grade":"特優級","type2":"交通","type":"無障礙廁所","exec_":"桃園市政府交通局","diaper":0}},{"type":"Feature","id":211,"geometry":{"type":"Point","coordinates":[121.298150999785,24.9950590004263]},"properties":{"FID":211,"county":10003,"city":1000301,"village":"中正里","number":"H010001429","name":"廈門街立體停車場5樓女廁所","address":"桃園市桃園區中正里文中東路165號","administra":"桃園市政府交通局","latitude":24.995059,"longitude":121.298151,"grade":"特優級","type2":"交通","type":"女廁所","exec_":"桃園市政府交通局","diaper":0}},{"type":"Feature","id":212,"geometry":{"type":"Point","coordinates":[121.298150999785,24.9950590004263]},"properties":{"FID":212,"county":10003,"city":1000301,"village":"中正里","number":"H010001428","name":"廈門街立體停車場5樓男廁所","address":"桃園市桃園區中正里文中東路165號","administra":"桃園市政府交通局","latitude":24.995059,"longitude":121.298151,"grade":"特優級","type2":"交通","type":"男廁所","exec_":"桃園市政府交通局","diaper":0}},{"type":"Feature","id":213,"geometry":{"type":"Point","coordinates":[121.298150999785,24.9950590004263]},"properties":{"FID":213,"county":10003,"city":1000301,"village":"中正里","number":"H010001427","name":"廈門街立體停車場5樓親子廁所","address":"桃園市桃園區中正里文中東路165號","administra":"桃園市政府交通局","latitude":24.995059,"longitude":121.298151,"grade":"特優級","type2":"交通","type":"親子廁所","exec_":"桃園市政府交通局","diaper":0}},{"type":"Feature","id":214,"geometry":{"type":"Point","coordinates":[121.298150999785,24.9950590004263]},"properties":{"FID":214,"county":10003,"city":1000301,"village":"中正里","number":"H010001426","name":"廈門街立體停車場4樓女廁所","address":"桃園市桃園區中正里文中東路165號","administra":"桃園市政府交通局","latitude":24.995059,"longitude":121.298151,"grade":"特優級","type2":"交通","type":"女廁所","exec_":"桃園市政府交通局","diaper":0}},{"type":"Feature","id":215,"geometry":{"type":"Point","coordinates":[121.298150999785,24.9950590004263]},"properties":{"FID":215,"county":10003,"city":1000301,"village":"中正里","number":"H010001425","name":"廈門街立體停車場4樓男廁所","address":"桃園市桃園區中正里文中東路165號","administra":"桃園市政府交通局","latitude":24.995059,"longitude":121.298151,"grade":"特優級","type2":"交通","type":"男廁所","exec_":"桃園市政府交通局","diaper":0}},{"type":"Feature","id":216,"geometry":{"type":"Point","coordinates":[121.298150999785,24.9950590004263]},"properties":{"FID":216,"county":10003,"city":1000301,"village":"中正里","number":"H010001424","name":"廈門街立體停車場4樓無障礙廁所","address":"桃園市桃園區中正里文中東路165號","administra":"桃園市政府交通局","latitude":24.995059,"longitude":121.298151,"grade":"特優級","type2":"交通","type":"無障礙廁所","exec_":"桃園市政府交通局","diaper":0}},{"type":"Feature","id":217,"geometry":{"type":"Point","coordinates":[121.298150999785,24.9950590004263]},"properties":{"FID":217,"county":10003,"city":1000301,"village":"中正里","number":"H010001423","name":"廈門街立體停車場3樓女廁所","address":"桃園市桃園區中正里文中東路165號","administra":"桃園市政府交通局","latitude":24.995059,"longitude":121.298151,"grade":"特優級","type2":"交通","type":"女廁所","exec_":"桃園市政府交通局","diaper":0}},{"type":"Feature","id":218,"geometry":{"type":"Point","coordinates":[121.298150999785,24.9950590004263]},"properties":{"FID":218,"county":10003,"city":1000301,"village":"中正里","number":"H010001422","name":"廈門街立體停車場3樓男廁所","address":"桃園市桃園區中正里文中東路165號","administra":"桃園市政府交通局","latitude":24.995059,"longitude":121.298151,"grade":"特優級","type2":"交通","type":"男廁所","exec_":"桃園市政府交通局","diaper":0}},{"type":"Feature","id":219,"geometry":{"type":"Point","coordinates":[121.298150999785,24.9950590004263]},"properties":{"FID":219,"county":10003,"city":1000301,"village":"中正里","number":"H010001421","name":"廈門街立體停車場3樓無障礙廁所","address":"桃園市桃園區中正里文中東路165號","administra":"桃園市政府交通局","latitude":24.995059,"longitude":121.298151,"grade":"特優級","type2":"交通","type":"無障礙廁所","exec_":"桃園市政府交通局","diaper":0}},{"type":"Feature","id":220,"geometry":{"type":"Point","coordinates":[121.298150999785,24.9950590004263]},"properties":{"FID":220,"county":10003,"city":1000301,"village":"中正里","number":"H010001420","name":"廈門街立體停車場2樓女廁所","address":"桃園市桃園區中正里文中東路165號","administra":"桃園市政府交通局","latitude":24.995059,"longitude":121.298151,"grade":"特優級","type2":"交通","type":"女廁所","exec_":"桃園市政府交通局","diaper":0}},{"type":"Feature","id":221,"geometry":{"type":"Point","coordinates":[121.298150999785,24.9950590004263]},"properties":{"FID":221,"county":10003,"city":1000301,"village":"中正里","number":"H010001419","name":"廈門街立體停車場2樓男廁所","address":"桃園市桃園區中正里文中東路165號","administra":"桃園市政府交通局","latitude":24.995059,"longitude":121.298151,"grade":"特優級","type2":"交通","type":"男廁所","exec_":"桃園市政府交通局","diaper":0}},{"type":"Feature","id":222,"geometry":{"type":"Point","coordinates":[121.298150999785,24.9950590004263]},"properties":{"FID":222,"county":10003,"city":1000301,"village":"中正里","number":"H010001418","name":"廈門街立體停車場2樓親子廁所","address":"桃園市桃園區中正里文中東路165號","administra":"桃園市政府交通局","latitude":24.995059,"longitude":121.298151,"grade":"特優級","type2":"交通","type":"親子廁所","exec_":"桃園市政府交通局","diaper":0}},{"type":"Feature","id":223,"geometry":{"type":"Point","coordinates":[121.294269999632,25.0043449996468]},"properties":{"FID":223,"county":10003,"city":1000301,"village":"中成里","number":"H010000506","name":"桃園市中路運動公園無障礙廁","address":"桃園市桃園區中成里正光路600號","administra":"桃園市立體育局","latitude":25.004345,"longitude":121.29427,"grade":"優等級","type2":"公園","type":"無障礙廁所","exec_":"桃園市立體育局","diaper":0}},{"type":"Feature","id":224,"geometry":{"type":"Point","coordinates":[121.294269999632,25.0043449996468]},"properties":{"FID":224,"county":10003,"city":1000301,"village":"中成里","number":"H010000505","name":"桃園市中路運動公園女廁","address":"桃園市桃園區中成里正光路600號","administra":"桃園市立體育局","latitude":25.004345,"longitude":121.29427,"grade":"不合格","type2":"公園","type":"女廁所","exec_":"桃園市立體育局","diaper":0}},{"type":"Feature","id":225,"geometry":{"type":"Point","coordinates":[121.294269999632,25.0043449996468]},"properties":{"FID":225,"county":10003,"city":1000301,"village":"中成里","number":"H010000504","name":"桃園市中路運動公園男廁","address":"桃園市桃園區中成里正光路600號","administra":"桃園市立體育局","latitude":25.004345,"longitude":121.29427,"grade":"優等級","type2":"公園","type":"男廁所","exec_":"桃園市立體育局","diaper":0}},{"type":"Feature","id":226,"geometry":{"type":"Point","coordinates":[121.292027500422,25.0022637702035]},"properties":{"FID":226,"county":10003,"city":1000301,"village":"中成里","number":"H010000495","name":"風禾公園靠溫州一路親子廁","address":"桃園市桃園區中成里慈文路","administra":"桃園市政府養護工程處","latitude":25.00226377,"longitude":121.2920275,"grade":"特優級","type2":"公園","type":"親子廁所","exec_":"桃園市政府養護工程處公園綠地科","diaper":0}},{"type":"Feature","id":227,"geometry":{"type":"Point","coordinates":[121.29201009971,25.0022528295563]},"properties":{"FID":227,"county":10003,"city":1000301,"village":"中成里","number":"H010000494","name":"風禾公園靠溫州一路女廁","address":"桃園市桃園區中成里慈文路","administra":"桃園市政府養護工程處","latitude":25.00225283,"longitude":121.2920101,"grade":"特優級","type2":"公園","type":"女廁所","exec_":"桃園市政府養護工程處公園綠地科","diaper":0}},{"type":"Feature","id":228,"geometry":{"type":"Point","coordinates":[121.291973900449,25.0022309600279]},"properties":{"FID":228,"county":10003,"city":1000301,"village":"中成里","number":"H010000493","name":"風禾公園靠溫州一路男廁","address":"桃園市桃園區中成里慈文路","administra":"桃園市政府養護工程處","latitude":25.00223096,"longitude":121.2919739,"grade":"特優級","type2":"公園","type":"男廁所","exec_":"桃園市政府養護工程處公園綠地科","diaper":0}},{"type":"Feature","id":229,"geometry":{"type":"Point","coordinates":[121.296685300001,25.0010623596411]},"properties":{"FID":229,"county":10003,"city":1000301,"village":"中成里","number":"H010001083","name":"桃園區兒4公園性別友善廁所","address":"桃園市桃園區中成里慈文路635巷","administra":"桃園市政府養護工程處","latitude":25.00106236,"longitude":121.2966853,"grade":"特優級","type2":"公園","type":"性別友善廁所","exec_":"桃園市政府養護工程處公園綠地科","diaper":0}},{"type":"Feature","id":230,"geometry":{"type":"Point","coordinates":[121.290025399895,25.0073533396249]},"properties":{"FID":230,"county":10003,"city":1000301,"village":"中埔里","number":"H010000297","name":"桃園區兒2公園無障礙廁所","address":"桃園市桃園區中埔里永安路765巷","administra":"桃園市政府養護工程處","latitude":25.00735334,"longitude":121.2900254,"grade":"特優級","type2":"公園","type":"無障礙廁所","exec_":"桃園市政府養護工程處公園綠地科","diaper":0}},{"type":"Feature","id":231,"geometry":{"type":"Point","coordinates":[121.290025399895,25.0073533396249]},"properties":{"FID":231,"county":10003,"city":1000301,"village":"中埔里","number":"H010000296","name":"桃園區兒2公園混合廁所","address":"桃園市桃園區中埔里永安路765巷","administra":"桃園市政府養護工程處","latitude":25.00735334,"longitude":121.2900254,"grade":"特優級","type2":"公園","type":"混合廁所","exec_":"桃園市政府養護工程處公園綠地科","diaper":1}},{"type":"Feature","id":232,"geometry":{"type":"Point","coordinates":[121.297929900202,24.9996542701131]},"properties":{"FID":232,"county":10003,"city":1000301,"village":"中成里","number":"H010000906","name":"桃園市政府消防局5樓無障礙廁所","address":"桃園市桃園區中成里力行路280號","administra":"桃園市政府消防局","latitude":24.99965427,"longitude":121.2979299,"grade":"特優級","type2":"民眾洽公場所","type":"無障礙廁所","exec_":"桃園市政府消防局","diaper":0}},{"type":"Feature","id":233,"geometry":{"type":"Point","coordinates":[121.298096200439,24.9996269197733]},"properties":{"FID":233,"county":10003,"city":1000301,"village":"中成里","number":"H010000905","name":"桃園市政府消防局5樓女廁","address":"桃園市桃園區中成里力行路280號","administra":"桃園市政府消防局","latitude":24.99962692,"longitude":121.2980962,"grade":"特優級","type2":"民眾洽公場所","type":"女廁所","exec_":"桃園市政府消防局","diaper":0}},{"type":"Feature","id":234,"geometry":{"type":"Point","coordinates":[121.298053299728,24.9995959203778]},"properties":{"FID":234,"county":10003,"city":1000301,"village":"中成里","number":"H010000904","name":"桃園市政府消防局5樓男廁","address":"桃園市桃園區中成里力行路280號","administra":"桃園市政府消防局","latitude":24.99959592,"longitude":121.2980533,"grade":"特優級","type2":"民眾洽公場所","type":"男廁所","exec_":"桃園市政府消防局","diaper":0}},{"type":"Feature","id":235,"geometry":{"type":"Point","coordinates":[121.29802109975,24.9995375798847]},"properties":{"FID":235,"county":10003,"city":1000301,"village":"中成里","number":"H010000903","name":"桃園市政府消防局1樓無障礙廁所","address":"桃園市桃園區中成里力行路280號","administra":"桃園市政府消防局","latitude":24.99953758,"longitude":121.2980211,"grade":"特優級","type2":"民眾洽公場所","type":"無障礙廁所","exec_":"桃園市政府消防局","diaper":0}},{"type":"Feature","id":236,"geometry":{"type":"Point","coordinates":[121.298039899689,24.999563410119]},"properties":{"FID":236,"county":10003,"city":1000301,"village":"中成里","number":"H010000902","name":"桃園市政府消防局1樓男廁","address":"桃園市桃園區中成里力行路280號","administra":"桃園市政府消防局","latitude":24.99956341,"longitude":121.2980399,"grade":"特優級","type2":"民眾洽公場所","type":"男廁所","exec_":"桃園市政府消防局","diaper":0}},{"type":"Feature","id":237,"geometry":{"type":"Point","coordinates":[121.29822489989,24.999792220158]},"properties":{"FID":237,"county":10003,"city":1000301,"village":"文中里","number":"H010000901","name":"桃園市政府消防局1樓女廁","address":"桃園市桃園區文中里力行路280號","administra":"桃園市政府消防局","latitude":24.99979222,"longitude":121.2982249,"grade":"特優級","type2":"民眾洽公場所","type":"女廁所","exec_":"桃園市政府消防局","diaper":0}},{"type":"Feature","id":238,"geometry":{"type":"Point","coordinates":[121.298053299638,24.9997047096362]},"properties":{"FID":238,"county":10003,"city":1000301,"village":"中成里","number":"H010000900","name":"桃園市政府消防局6樓無障礙廁所","address":"桃園市桃園區中成里力行路280號","administra":"桃園市政府消防局","latitude":24.99970471,"longitude":121.2980533,"grade":"特優級","type2":"民眾洽公場所","type":"無障礙廁所","exec_":"桃園市政府消防局","diaper":0}},{"type":"Feature","id":239,"geometry":{"type":"Point","coordinates":[121.298063999623,24.9995969895592]},"properties":{"FID":239,"county":10003,"city":1000301,"village":"中成里","number":"H010000897","name":"桃園市政府消防局2樓無障礙廁所","address":"桃園市桃園區中成里力行路280號","administra":"桃園市政府消防局","latitude":24.99959699,"longitude":121.298064,"grade":"特優級","type2":"民眾洽公場所","type":"無障礙廁所","exec_":"桃園市政府消防局","diaper":0}},{"type":"Feature","id":240,"geometry":{"type":"Point","coordinates":[121.297581199678,24.9973843798598]},"properties":{"FID":240,"county":10003,"city":1000301,"village":"中成里","number":"H010000896","name":"桃園市政府消防局2樓女廁","address":"桃園市桃園區中成里力行路280號","administra":"桃園市政府消防局","latitude":24.99738438,"longitude":121.2975812,"grade":"特優級","type2":"民眾洽公場所","type":"女廁所","exec_":"桃園市政府消防局","diaper":0}},{"type":"Feature","id":241,"geometry":{"type":"Point","coordinates":[121.298039900238,24.999607170308]},"properties":{"FID":241,"county":10003,"city":1000301,"village":"中成里","number":"H010000895","name":"桃園市政府消防局2樓男廁","address":"桃園市桃園區中成里力行路280號","administra":"桃園市政府消防局","latitude":24.99960717,"longitude":121.2980399,"grade":"特優級","type2":"民眾洽公場所","type":"男廁所","exec_":"桃園市政府消防局","diaper":0}},{"type":"Feature","id":242,"geometry":{"type":"Point","coordinates":[121.296222200429,24.9986233497508]},"properties":{"FID":242,"county":10003,"city":1000301,"village":"中成里","number":"H010001073","name":"台灣中油力行加油站女廁","address":"桃園市桃園區中成里力行路368號","administra":"台灣中油","latitude":24.99862335,"longitude":121.2962222,"grade":"特優級","type2":"商業營業場所","type":"女廁所","exec_":"台灣中油(股)公司","diaper":0}},{"type":"Feature","id":243,"geometry":{"type":"Point","coordinates":[121.296255100111,24.9985331104185]},"properties":{"FID":243,"county":10003,"city":1000301,"village":"中成里","number":"H010001072","name":"台灣中油力行加油站男廁","address":"桃園市桃園區中成里力行路368號","administra":"台灣中油","latitude":24.99853311,"longitude":121.2962551,"grade":"特優級","type2":"商業營業場所","type":"男廁所","exec_":"台灣中油(股)公司","diaper":0}},{"type":"Feature","id":244,"geometry":{"type":"Point","coordinates":[121.281723999833,25.0017016903646]},"properties":{"FID":244,"county":10003,"city":1000301,"village":"中成里","number":"H010000496","name":"桃園區中成寵物公園男女混合廁所","address":"桃園市桃園區中成里國際路二段","administra":"桃園市桃園區公所","latitude":25.00170169,"longitude":121.281724,"grade":"特優級","type2":"公園","type":"混合廁所","exec_":"桃園市桃園區公所公燈管理課","diaper":0}},{"type":"Feature","id":245,"geometry":{"type":"Point","coordinates":[121.286176000478,25.0036510004229]},"properties":{"FID":245,"county":10003,"city":1000301,"village":"中成里","number":"H010000485","name":"桃園區統一精工加油站國際二站女廁","address":"桃園市桃園區中成里國際路二段495號","administra":"台塑石油股份有限公司加盟店-統一國際二站(統一精工股份有限公司)","latitude":25.003651,"longitude":121.286176,"grade":"特優級","type2":"商業營業場所","type":"女廁所","exec_":"台塑石油股份有限公司加盟店-統一國際二站(統一精工股份有限公司)","diaper":0}},{"type":"Feature","id":246,"geometry":{"type":"Point","coordinates":[121.286176000478,25.0036510004229]},"properties":{"FID":246,"county":10003,"city":1000301,"village":"中成里","number":"H010000484","name":"桃園區統一精工加油站國際二站男廁","address":"桃園市桃園區中成里國際路二段495號","administra":"台塑石油股份有限公司加盟店-統一國際二站(統一精工股份有限公司)","latitude":25.003651,"longitude":121.286176,"grade":"特優級","type2":"商業營業場所","type":"男廁所","exec_":"台塑石油股份有限公司加盟店-統一國際二站(統一精工股份有限公司)","diaper":0}},{"type":"Feature","id":247,"geometry":{"type":"Point","coordinates":[121.291077000269,25.0011699995575]},"properties":{"FID":247,"county":10003,"city":1000301,"village":"中成里","number":"H010000492","name":"風禾公園男廁","address":"桃園市桃園區中成里慈文路688號","administra":"桃園市政府養護工程處","latitude":25.00117,"longitude":121.291077,"grade":"特優級","type2":"公園","type":"男廁所","exec_":"桃園市政府養護工程處公園綠地科","diaper":1}},{"type":"Feature","id":248,"geometry":{"type":"Point","coordinates":[121.291077000269,25.0011699995575]},"properties":{"FID":248,"county":10003,"city":1000301,"village":"中成里","number":"H010000491","name":"風禾公園無障礙廁所","address":"桃園市桃園區中成里慈文路688號","administra":"桃園市政府養護工程處","latitude":25.00117,"longitude":121.291077,"grade":"特優級","type2":"公園","type":"無障礙廁所","exec_":"桃園市政府養護工程處公園綠地科","diaper":0}},{"type":"Feature","id":249,"geometry":{"type":"Point","coordinates":[121.291077000269,25.0011699995575]},"properties":{"FID":249,"county":10003,"city":1000301,"village":"中成里","number":"H010000490","name":"風禾公園女廁","address":"桃園市桃園區中成里慈文路688號","administra":"桃園市政府養護工程處","latitude":25.00117,"longitude":121.291077,"grade":"特優級","type2":"公園","type":"女廁所","exec_":"桃園市政府養護工程處公園綠地科","diaper":1}},{"type":"Feature","id":250,"geometry":{"type":"Point","coordinates":[121.311084500139,24.9952141197109]},"properties":{"FID":250,"county":10003,"city":1000301,"village":"中和里","number":"H010001486","name":"大廟口派出所-混合廁所","address":"桃園市桃園區中和里中正路198號","administra":"桃園市政府文化局","latitude":24.99521412,"longitude":121.3110845,"grade":"不合格","type2":"文化育樂活動場所","type":"混合廁所","exec_":"桃園市政府文化局","diaper":0}},{"type":"Feature","id":251,"geometry":{"type":"Point","coordinates":[121.311061000457,24.9947269998255]},"properties":{"FID":251,"county":10003,"city":1000301,"village":"中和里","number":"H010001436","name":"景福宮無障礙廁所","address":"桃園市桃園區中和里中正路208號","administra":"景福宮","latitude":24.994727,"longitude":121.311061,"grade":"特優級","type2":"宗教禮儀場所","type":"無障礙廁所","exec_":"景福宮","diaper":1}},{"type":"Feature","id":252,"geometry":{"type":"Point","coordinates":[121.310928000253,24.9953319998559]},